i,c_battpos,c_de_oil_vol,c_fin,c_heading,c_pitch,c_wpt_lat,c_wpt_lon,m_altitude,m_argos_is_xmitting,m_argos_on,m_battery,m_battpos,m_climb_tot_time,m_coulomb_amphr_total,m_depth,m_de_oil_vol,m_dive_tot_time,m_fin,m_gps_lat,m_gps_lon,m_heading,m_iridium_on,m_iridium_status,m_lat,m_leakdetect_voltage,m_leakdetect_voltage_forward,m_leakdetect_voltage_science,m_lon,m_pitch,m_present_secs_into_mission,m_present_time,m_raw_altitude,m_roll,m_speed,m_thruster_power,m_vacuum,m_vehicle_temp,m_veh_temp,m_water_depth,m_water_vx,m_water_vy
0,0.4,430.0,0.0,4.569581,0.4538,2016.6599999999999,12949.83,0.0,0,1,14.933396,0.4016282,-1.0,32.252438,0.0,429.9476,2879.492,-0.005789684,2021.1313999999998,12957.7056,4.6355944,1,9,2021.1313999570816,2.4922771,2.4829059,2.4875152,12957.705599999763,0.53407073,0.985,1739082235.071,110.0,0.5375614,0.3546904,0.0,8.602946,0.0,22.857924,-1.0,-0.018280728,0.022135517
1,,,,,,2016.6599999999999,12949.83,,-127,-127,,,,,,,,,2021.1313999999998,12957.7056,,-127,-127,,,,,,,9.229,1739082243.32,,,,,,,,,,
2,,,,,,,,,-127,-127,,,,,,,,,2021.1225,12957.6891,,-127,-127,,,,,,,37.229,1739082271.336,,,,,,,,,,
3,,,,,,2016.6599999999999,13007.54,,-127,-127,,,,,,,,,,,,-127,-127,,,,,,,41.236,1739082275.345,,,,,,,,,,
4,,,,,,,,,-127,-127,,,,,,,,,2021.1217,12957.6872,,-127,-127,,,,,,,49.12,1739082282.887,,,,,,,,,,
5,,,,,,,,,-127,-127,,,,,,,,,2021.1218999999999,12957.6874,,-127,-127,,,,,,,53.211,1739082286.98,,,,,,,,,,
6,,,,,,,,,-127,-127,,,,,,,,,2021.1210999999998,12957.6883,,-127,-127,,,,,,,57.211,1739082290.983,,,,,,,,,,
7,,,,,,,,,-127,-127,,,,,,,,,2021.1208,12957.6875,,-127,-127,,,,,,,65.211,1739082298.987,,,,,,,,,,
8,,,,,,,,,-127,-127,,,,,,,,,2021.1210999999998,12957.6877,,-127,-127,,,,,,,69.217,1739082302.996,,,,,,,,,,
9,,,,,,,,,-127,-127,,,,,,,,,2021.1210999999998,12957.6871,,-127,-127,,,,,,,73.22,1739082307.0,,,,,,,,,,
10,,,,,,,,,-127,-127,,,,,,,,,2021.1218999999999,12957.687899999999,,-127,-127,,,,,,,77.22,1739082311.002,,,,,,,,,,
11,,,,,,,,,-127,-127,,,,,,,,,2021.1212999999998,12957.6886,,-127,-127,,,,,,,85.22,1739082319.007,,,,,,,,,,
12,,,,,,,,,-127,-127,,,,,,,,,2021.1222999999998,12957.6874,,-127,-127,,,,,,,89.226,1739082323.016,,,,,,,,,,
13,,,,,,,,,-127,-127,,,,,,,,,2021.1212999999998,12957.6878,,-127,-127,,,,,,,93.268,1739082327.06,,,,,,,,,,
14,,,,,,,,,-127,-127,,,,,,,,,2021.1205,12957.6882,,-127,-127,,,,,,,97.269,1739082331.064,,,,,,,,,,
15,,,,,,,,,-127,-127,,,,,,,,,2021.1215,12957.6909,,-127,-127,,,,,,,105.269,1739082339.068,,,,,,,,,,
16,,,,,,,,,-127,-127,,,,,,,,,2021.1208,12957.690200000001,,-127,-127,,,,,,,109.274,1739082343.076,,,,,,,,,,
17,,,,,,,,,-127,-127,,,,,,,,,2021.1213999999998,12957.689400000001,,-127,-127,,,,,,,113.276,1739082347.081,,,,,,,,,,
18,,,,,,,,,-127,-127,,,,,,,,,2021.1221999999998,12957.6885,,-127,-127,,,,,,,117.277,1739082351.083,,,,,,,,,,
19,,,,,,,,,-127,-127,,,,,,,,,2021.1232999999997,12957.6889,,-127,-127,,,,,,,125.278,1739082359.088,,,,,,,,,,
20,,,,,,,,,-127,-127,,,,,,,,,2021.1231999999998,12957.689400000001,,-127,-127,,,,,,,129.283,1739082363.096,,,,,,,,,,
21,,,,,,,,,-127,-127,,,,,,,,,2021.1238999999998,12957.689400000001,,-127,-127,,,,,,,133.285,1739082367.101,,,,,,,,,,
22,,,,,,,,,-127,-127,,,,,,,,,2021.1245,12957.6895,,-127,-127,,,,,,,137.286,1739082371.104,,,,,,,,,,
23,,,,,,,,,-127,-127,,,,,,,,,2021.1252,12957.6898,,-127,-127,,,,,,,145.287,1739082379.109,,,,,,,,,,
24,,,,,,,,,-127,-127,,,,,,,,,2021.1258,12957.6901,,-127,-127,,,,,,,149.293,1739082383.118,,0.5375614,,,,,,,-0.018280728,0.022135517
25,-0.08352987,-390.0,0.13054605,2.1068518,-0.4538,,,0.0,0,0,14.989748,0.014115385,-1.0,32.268692,34.91981,-382.59006,2879.492,0.1534266,,,1.8867009,0,99,2021.127906021627,,,,12957.720946083846,-0.41364303,299.11,1739082533.021,110.0,,0.42269176,0.0,6.5944085,0.0,23.783932,-1.0,,
26,,,,,,,,,-127,-127,,,,,,,,,,,,-127,-127,,,,,,,303.116,1739082537.03,,0.25481808,,,,,,,,
27,,,,,,,,,-127,-127,,,,,,,,,,,,-127,-127,,,,,,,456.788,1739082690.79,,0.26529005,,,,,,,,
28,,,,,,,,,-127,-127,,,,,,,,,,,,-127,-127,,2.489591,2.480464,2.4850733,,,596.794,1739082830.876,,,,,,,,,,
29,-0.08352987,-390.0,-0.072945,2.1057434,-0.4538,,,,0,-127,15.248615,0.014115385,,32.274933,89.57974,-382.63644,,-0.08395043,,,2.157227,0,-127,2021.1044558460894,,,,12957.771376439821,-0.41364303,600.799,1739082834.884,110.0,,0.32975635,,6.569383,,24.174652,,,
30,,,,,,,,,-127,-127,,,,,,,,,,,,-127,-127,,,,,,,608.889,1739082842.978,,0.2617994,,,,,,,,
31,,,,,,,,,-127,-127,,,,,,,,,,,,-127,-127,,,,,,,762.632,1739082996.81,,0.27052602,,,,,,,,
32,0.08697063,-390.0,0.047331378,2.1049433,-0.4538,,,,0,-127,15.286983,0.14532052,,32.28119,142.0029,-383.0074,,0.04342263,,,2.0472713,0,-127,2021.082541518172,,,,12957.819326283447,-0.48171088,902.705,1739083136.964,110.0,,0.3817249,,6.5944085,,24.123857,,,
33,,,,,,,,,-127,-127,,,,,,,,,,,,-127,-127,,,,,,,914.711,1739083148.976,,0.2932153,,,,,,,,
34,,,,,,,,,-127,-127,,,,,,,,,,,,-127,-127,,,,,,,1064.719,1739083299.072,,0.30194196,,,,,,,,
35,,,,,,,,,-127,-127,,,,,,,,,,,,-127,-127,,2.4893162,2.4802198,2.4846764,,,1200.786,1739083435.217,,,,,,,,,,
36,0.08697063,-390.0,0.38051024,2.1060822,-0.4538,,,,0,-127,15.308489,0.14532052,,32.287445,193.27509,-383.1001,,0.4305094,,,1.6563175,0,-127,2021.079881238203,,,,12957.864727945574,-0.5078908,1204.792,1739083439.225,110.0,,0.25875354,,6.6743603,,23.334602,,,
37,,,,,,,,,-127,-127,,,,,,,,,,,,-127,-127,,,,,,,1216.795,1739083451.235,,0.3036873,,,,,,,,
38,,,,,,,,,-127,-127,,,,,,,,,,,,-127,-127,,,,,,,1370.487,1739083605.016,,0.29670596,,,,,,,,
39,0.08697063,-390.0,0.29476264,2.1075978,-0.4538,,,,0,-127,15.3186655,0.14532052,,32.293682,242.57109,-383.2624,,0.2694591,,,1.7383479,0,-127,2021.079909167691,,,,12957.909708933557,-0.4956735,1506.555,1739083741.162,110.0,,0.23990826,,6.763087,,22.31873,,,
40,,,,,,,,,-127,-127,,,,,,,,,,,,-127,-127,,,,,,,1522.561,1739083757.177,,0.2984513,,,,,,,,
41,,,,,,,,,-127,-127,,,,,,,,,,,,-127,-127,,,,,,,1676.242,1739083910.947,,0.30717796,,,,,,,,
42,,,,,,,,,-127,-127,,,,,,,,,,,,-127,-127,,2.4890416,2.4799755,2.4844933,,,1804.249,1739084039.028,,,,,,,,,,
43,0.08697063,-390.0,0.45,2.1086009,-0.4538,,,,0,-127,15.321811,0.14532052,,32.29994,293.6044,-383.42468,,0.4375115,,,1.5498524,0,-127,2021.0742233098333,,,,12957.955619211076,-0.4834562,1808.254,1739084043.036,110.0,,0.24143223,,6.8063126,,21.287228,,,
44,,,,,,,,,-127,-127,,,,,,,,,,,,-127,-127,,,,,,,1828.323,1739084063.115,,0.30892327,,,,,,,,
45,,,,,,,,,-127,-127,,,,,,,,,,,,-127,-127,,,,,,,1980.329,1739084215.209,,0.31066862,,,,,,,,
46,0.08697063,-390.0,0.3754635,2.1095834,-0.4538,,,,0,-127,15.323643,0.14532052,,32.307426,340.83734,-383.3783,,0.3744919,,,2.1921334,0,-127,2021.067035593678,,,,12957.997390442484,-0.4904375,2110.017,1739084344.972,110.0,,0.24103226,,6.8700137,,20.329964,,,
47,,,,,,,,,-127,-127,,,,,,,,,,,,-127,-127,,,,,,,2134.023,1739084368.992,,0.3159046,,,,,,,,
48,,,,,,,,,-127,-127,,,,,,,,,,,,-127,-127,,,,,,,2284.924,1739084519.98,,0.31939524,,,,,,,,
49,,,,,,,,,-127,-127,,,,,,,,,,,,-127,-127,,2.4887362,2.4796093,2.484188,,,2406.605,1739084641.731,,,,,,,,,,
50,0.08697063,-390.0,0.20038721,2.1097019,-0.4538,,,,0,-127,15.319598,0.14532052,,32.313683,385.46436,-383.5406,,0.2026389,,,1.8186331,0,-127,2021.051047885783,,,,12958.0333050075,-0.4834562,2410.61,1739084645.739,110.0,,0.29112792,,6.9203897,,19.357069,,,
51,,,,,,,,,-127,-127,,,,,,,,,,,,-127,-127,,,,,,,2438.614,1739084673.758,,0.30019662,,,,,,,,
52,,,,,,,,,-127,-127,,,,,,,,,,,,-127,-127,,,,,,,2590.705,1739084825.937,,0.3228859,,,,,,,,
53,0.08697063,-390.0,0.306077,2.111721,-0.4538,,,,0,-127,15.323627,0.14532052,,32.32117,428.11517,-383.5406,,0.3079712,,,1.7051867,0,-127,2021.0554974353631,,,,12958.072780636618,-0.48694685,2710.775,1739084946.076,,,0.2428562,,6.968816,,18.321661,,,
54,,,,,,,,,-127,-127,,,,,,,,,,,,-127,-127,,,,,,,2732.513,1739084967.826,110.0,,,,,,,,,
55,,,,,,,,,-127,-127,,,,,,,,,,,,-127,-127,,,,,,,2744.519,1739084979.839,,0.32637656,,,,,,,,
56,,,,,,,,,-127,-127,,,,,,,,,,,,-127,-127,,,,,,,2896.595,1739085132.003,,0.3281219,,,,,,,,
57,,,,,,,,,-127,-127,,,,,,,,,,,,-127,-127,,2.4884615,2.4792125,2.4838216,,,3008.601,1739085244.074,,,,,,,,,,
58,0.08697063,-390.0,0.4011033,2.113164,-0.4538,,,,0,-127,15.321733,0.14379486,,32.327427,469.5933,-383.56378,,0.3861622,,,1.9739674,0,-127,2021.0526094796069,,,,12958.11049322439,-0.47996554,3012.607,1739085248.082,,,0.27407378,,7.042592,,17.340952,,,
59,,,,,,,,,-127,-127,,,,,,,,,,,,-127,-127,,,,,,,3032.673,1739085268.159,110.0,,,,,,,,,
60,,,,,,,,,-127,-127,,,,,,,,,,,,-127,-127,,,,,,,3048.673,1739085284.168,,0.3281219,,,,,,,,
61,,,,,,,,,-127,-127,,,,,,,,,,,,-127,-127,,,,,,,3202.374,1739085437.958,,0.33161256,,,,,,,,
62,0.08697063,-390.0,0.25440055,2.1135063,-0.4538,,,,0,-127,15.3157835,0.14532052,,32.33495,511.6795,-383.1001,,0.2344822,,,1.6894788,0,-127,2021.039121720548,,,,12958.144398685285,-0.46774822,3314.375,1739085550.024,,,0.25480205,,7.092643,,16.360245,,,
63,,,,,,,,,-127,-127,,,,,,,,,,,,-127,-127,,,,,,,3334.381,1739085570.041,110.0,,,,,,,,,
64,,,,,,,,,-127,-127,,,,,,,,,,,,-127,-127,,,,,,,3354.386,1739085590.058,,0.33161256,,,,,,,,
65,,,,,,,,,-127,-127,,,,,,,,,,,,-127,-127,,,,,,,3508.066,1739085743.827,,0.33161256,,,,,,,,
66,,,,,,,,,-127,-127,,,,,,,,,,,,-127,-127,,2.4880342,2.4789376,2.4837606,,,3612.132,1739085847.953,,,,,,,,,,
67,0.08697063,-390.0,0.3033907,2.1150937,-0.4538,,,,0,-127,15.311119,0.14532052,,32.342438,552.5713,-382.5205,,0.2916327,,,1.6388642,0,-127,2021.0381605148532,,,,12958.182061505095,-0.47298422,3616.138,1739085851.96,,,0.20627622,,7.167394,,15.383443,,,
68,,,,,,,,,-127,-127,,,,,,,,,,,,-127,-127,,,,,,,3636.141,1739085871.975,110.0,,,,,,,,,
69,,,,,,,,,-127,-127,,,,,,,,,,,,-127,-127,,,,,,,3660.146,1739085895.995,,0.3228859,,,,,,,,
70,,,,,,,,,-127,-127,,,,,,,,,,,,-127,-127,,,,,,,3812.217,1739086048.153,,0.3298672,,,,,,,,
71,0.08697063,-390.0,0.44841167,2.1170313,-0.4538,,,,0,-127,15.301962,0.14532052,,32.34994,590.77026,-381.94092,,0.4398456,,,1.4346607,0,-127,2021.0409871538716,,,,12958.21709297406,-0.47472957,3918.085,1739086154.082,,,0.12540823,,7.21777,,14.414456,,,
72,,,,,,,,,-127,-127,,,,,,,,,,,,-127,-127,,,,,,,3938.091,1739086174.099,110.0,,,,,,,,,
73,,,,,,,,,-127,-127,,,,,,,,,,,,-127,-127,,,,,,,3966.096,1739086202.121,,0.3281219,,,,,,,,
74,,,,,,,,,-127,-127,,,,,,,,,,,,-127,-127,,,,,,,4118.171,1739086354.284,,0.3351032,,,,,,,,
75,,,,,,,,,-127,-127,,,,,,,,,,,,-127,-127,,2.4877288,2.478663,2.483486,,,4214.177,1739086450.344,,,,,,,,,,
76,0.08697063,-390.0,0.40782687,2.119167,-0.4538,,,,0,-127,15.299706,0.14532052,,32.35743,623.10583,-381.43088,,0.4200061,,,1.5393804,0,-127,2021.04517766793,,,,12958.246116689224,-0.47822022,4218.182,1739086454.352,,,0.20704354,,7.2921968,,13.468913,,,
77,,,,,,,,,-127,-127,,,,,,,,,,,,-127,-127,,,,,,,4270.245,1739086506.445,,0.34382987,,,,,,,,
78,,,,,,,,,-127,-127,,,,,,,,,,,,-127,-127,,,,,,,4383.994,1739086620.258,110.0,,,,,,,,,
79,,,,,,,,,-127,-127,,,,,,,,,,,,-127,-127,,,,,,,4424.061,1739086660.349,,0.3351032,,,,,,,,
80,0.08697063,-390.0,0.28679708,2.1213572,-0.4538,,,,0,-127,15.291737,0.14684616,,32.36495,656.2015,-380.75858,,0.3091382,,,1.7243853,0,-127,2021.050403265491,,,,12958.275990729415,-0.47647488,4520.067,1739086756.411,,,0.17963944,,7.3344474,,12.581978,,,
81,,,,,,,,,-127,-127,,,,,,,,,,,,-127,-127,,,,,,,4576.073,1739086812.449,,0.33161256,,,,,,,,
82,,,,,,,,,-127,-127,,,,,,,,,,,,-127,-127,,,,,,,4684.158,1739086920.596,110.0,,,,,,,,,
83,,,,,,,,,-127,-127,,,,,,,,,,,,-127,-127,,,,,,,4728.163,1739086964.626,,0.34557518,,,,,,,,
84,,,,,,,,,-127,-127,,,,,,,,,,,,-127,-127,,2.4874237,2.4784799,2.4833028,,,4816.229,1739087052.744,,,,,,,,,,
85,0.08697063,-390.0,0.3795091,2.1231709,-0.4538,,,,0,-127,15.285669,0.14684616,,32.372437,691.64246,-380.06305,,0.3919973,,,1.5812683,0,-127,2021.0521640039447,,,,12958.3083646969,-0.47996554,4820.235,1739087056.751,,,0.19656412,,7.3880734,,11.784908,,,
86,,,,,,,,,-127,-127,,,,,,,,,,,,-127,-127,,,,,,,4881.97,1739087118.522,,0.33684856,,,,,,,,
87,,,,,,,,,-127,-127,,,,,,,,,,,,-127,-127,,,,,,,4986.042,1739087222.655,110.0,,,,,,,,,
88,,,,,,,,,-127,-127,,,,,,,,,,,,-127,-127,,,,,,,5034.049,1739087270.689,,0.34208453,,,,,,,,
89,0.08697063,-390.0,0.25759646,2.1252255,-0.4538,,,,0,-127,15.274966,0.14684616,,32.37994,727.06177,-379.4603,,0.2822965,,,1.7505653,0,-127,2021.0567197782366,,,,12958.34088107394,-0.4712389,5122.132,1739087358.823,,,0.21442045,,7.416674,,11.085519,,,
90,,,,,,,,,-127,-127,,,,,,,,,,,,-127,-127,,,,,,,5186.138,1739087422.866,,0.33859387,,,,,,,,
91,,,,,,,,,-127,-127,,,,,,,,,,,,-127,-127,,,,,,,5287.832,1739087524.618,110.0,,,,,,,,,
92,,,,,,,,,-127,-127,,,,,,,,,,,,-127,-127,,,,,,,5340.112,1739087576.928,,0.34732053,,,,,,,,
93,,,,,,,,,-127,-127,,,,,,,,,,,,-127,-127,,2.4890416,2.4800062,2.4846764,,,5420.121,1739087656.983,,,,,,,,,,
94,-0.35,110.0,-0.45,2.1265304,-0.4538,,,,0,-127,13.906129,-0.34288463,,32.536175,746.8019,79.29615,,-0.3954984,,,2.9565878,0,-127,2021.0520464938975,,,,12958.36662774051,0.6632251,5424.127,1739087660.992,,,0.23531133,,7.4472246,,10.499438,,,
95,,,,,,,,,-127,-127,,,,,,,,,,,,-127,-127,,,,,,,5492.198,1739087729.102,,0.57595867,,,,,,,,
96,,,,,,,,,-127,-127,,,,,,,,,,,,-127,-127,,,,,,,5644.269,1739087881.261,,0.5462881,,,,,,,,
97,-0.35,110.0,-0.45,2.1225123,,,,,0,-127,15.001553,-0.34135896,,32.569927,655.6151,110.66351,,-0.4515159,,,2.560398,0,-127,2021.009544620523,,,,12958.375655346443,0.7487463,5724.275,1739087961.313,,,0.33050933,,7.738755,,10.116532,,,
98,,,,,,,,,-127,-127,,,,,,,,,,,,-127,-127,,,,,,,5796.544,1739088033.624,,0.5602507,,,,,,,,
99,,,,,,,,,-127,-127,,,,,,,,,,,,-127,-127,,,,,,,5948.545,1739088185.712,,0.5375614,,,,,,,,
100,,,,,,,,,-127,-127,,,,,,,,,,,,-127,-127,,2.48721,2.4781442,2.4828753,,,6020.613,1739088257.822,,,,,,,,,,
101,-0.35,110.0,-0.3254053,2.1195538,,,,,0,-127,15.0787525,-0.34135896,,32.586193,564.4718,111.08082,,-0.3639886,,,2.237512,0,-127,2020.9700932565686,,,,12958.40481559518,0.7295476,6024.619,1739088261.83,,,0.30960518,,7.7494802,,9.905543,,,
102,,,,,,,,,-127,-127,,,,,,,,,,,,-127,-127,,,,,,,6100.623,1739088337.877,,0.53407073,,,,,,,,
103,,,,,,,,,-127,-127,,,,,,,,,,,,-127,-127,,,,,,,6252.698,1739088490.041,,0.5235988,,,,,,,,
104,-0.35,110.0,-0.29495892,2.118702,,,,,0,-127,15.098747,-0.34135896,,32.60243,477.25916,111.59086,,-0.2963008,,,2.019346,0,-127,2020.9471205688847,,,,12958.447626943325,0.72431165,6324.763,1739088562.146,,,0.323467,,7.700404,,10.011038,,,
105,,,,,,,,,-127,-127,,,,,,,,,,,,-127,-127,,,,,,,6404.772,1739088642.202,,0.52534413,,,,,,,,
106,,,,,,,,,-127,-127,,,,,,,,,,,,-127,-127,,,,,,,6556.069,1739088793.585,,0.49916416,,,,,,,,
107,,,,,,,,,-127,-127,,,,,,,,,,,,-127,-127,,2.4874237,2.4783883,2.4832113,,,6624.075,1739088861.631,,,,,,,,,,
108,-0.35,110.0,-0.45,2.1170938,,,,,0,-127,15.10586,-0.34135896,,32.618694,391.32776,111.86906,,-0.4515159,,,2.8902652,0,-127,2020.9186498135102,,,,12958.478333486264,0.70685834,6628.08,1739088865.639,,,0.30348384,,7.638328,,10.640098,,,
109,,,,,,,,,-127,-127,,,,,,,,,,,,-127,-127,,,,,,,6708.152,1739088945.757,,0.53232545,,,,,,,,
110,,,,,,,,,-127,-127,,,,,,,,,,,,-127,-127,,,,,,,6860.22,1739089097.913,,0.5078908,,,,,,,,
111,-0.35,110.0,-0.35741374,2.115278,,,,,0,-127,15.105838,-0.34135896,,32.63493,308.65378,112.12408,,-0.3219755,,,2.3544493,0,-127,2020.8873594773975,,,,12958.51032551624,0.710349,6928.227,1739089165.958,,,0.25478727,,7.5408263,,11.593455,,,
112,,,,,,,,,-127,-127,,,,,,,,,,,,-127,-127,,,,,,,7012.303,1739089250.083,,0.51138145,,,,,,,,
113,,,,,,,,,-127,-127,,,,,,,,,,,,-127,-127,,,,,,,7164.306,1739089402.173,,0.5078908,,,,,,,,
114,,,,,,,,,-127,-127,,,,,,,,,,,,-127,-127,,2.4876678,2.4785104,2.483486,,,7224.392,1739089462.294,,,,,,,,,,
115,-0.35,110.0,-0.3518969,2.1149704,,,,,0,-127,15.111052,-0.33983332,,32.651196,230.77913,112.26318,,-0.3044701,,,2.2287855,0,-127,2020.8679101784908,,,,12958.549715785632,0.7033677,7228.398,1739089466.302,,,0.2658711,,7.4833,,12.69138,,,
116,,,,,,,,,-127,-127,,,,,,,,,,,,-127,-127,,,,,,,7316.402,1739089554.358,,0.48171088,,,,,,,,
117,,,,,,,,,-127,-127,,,,,,,,,,,,-127,-127,,,,,,,7468.476,1739089706.519,,0.4834562,,,,,,,,
118,-0.35,110.0,-0.3884065,2.1135461,,,,,0,-127,15.110692,-0.33983332,,32.66618,153.70798,112.28636,,-0.4515159,,,2.5673792,0,-127,2020.8400006457825,,,,12958.57776612067,0.71383965,7528.543,1739089766.62,,,0.25971326,,7.416674,,13.914334,,,
119,,,,,,,,,-127,-127,,,,,,,,,,,,-127,-127,,,,,,,7620.544,1739089858.675,,0.4607669,,,,,,,,
120,,,,,,,,,-127,-127,,,,,,,,,,,,-127,-127,,,,,,,7772.612,1739090010.831,,0.44680429,,,,,,,,
121,,,,,,,,,-127,-127,,,,,,,,,,,,-127,-127,,2.4880037,2.4789681,2.483486,,,7824.618,1739090062.867,,,,,,,,,,
122,-0.35,110.0,-0.18855846,2.1130726,,,,,0,-127,15.116791,-0.33983332,,32.681194,92.16399,112.44865,,-0.2229028,,,1.9722221,0,-127,2020.8191237184708,,,,12958.603639184863,0.7033677,7828.624,1739090066.875,,,0.200306,,7.255796,,15.465494,,,
123,,,,,,,,,-127,-127,,,,,,,,,,,,-127,-127,,,,,,,7924.71,1739090163.016,,0.42760566,,,,,,,,
124,,,,,,,,,-127,-127,,,,,,,,,,,,-127,-127,,,,,,,8076.781,1739090315.174,,0.424115,,,,,,,,
125,-0.35,110.0,-0.27064508,2.1134713,,,,,0,-127,15.121796,-0.34135896,,32.69743,41.239258,112.54138,,-0.2518512,,,2.5254915,0,-127,2020.8057894642152,,,,12958.62583679872,0.6161012,8128.788,1739090367.211,,,0.19361296,,7.165769,,17.239365,,,
126,,,,,,,,,-127,-127,,,,,,,,,,,,-127,-127,,,,,,,8228.861,1739090467.342,,0.38397244,,,,,,,,
127,,,,,,,,,-127,-127,,,,,,,,,,,,-127,-127,,,,,,,8380.871,1739090619.44,,0.46949357,,,,,,,,
128,,,,,0.4538,,,,-127,-127,,,,,,,,,,,,-127,-127,,,,,,,8396.955,1739090635.533,,,,,,,,,,
129,,,,,,,,,-127,0,,,,,,,,,,,,-127,-127,,,,,,,8405.84,1739090644.423,,,,,,,,,,
130,,,,,,,,,-127,-127,,,,,,,,,,,,-127,-127,,2.4920635,2.4826312,2.486966,,,8425.89,1739090664.485,,,,,,,,,,
131,,,,,,,,,0,-127,15.121346,,,32.728676,,,,,,,,0,-127,,,,,,,8429.895,1739090668.492,,,,,7.2648964,,18.704567,,,
132,,,,,,,,,-127,-127,,,,,,,,,2021.0122,12958.744300000002,,-127,-127,,,,,,,8482.103,1739090720.731,,,,,,,,,,
133,,,,,,,,,-127,-127,,,,,,,,,2021.0128,12958.743900000001,,-127,-127,,,,,,,8490.112,1739090728.744,,,,,,,,,,
134,,,,,,,,,-127,-127,,,,,,,,,2021.0137,12958.744300000002,,-127,-127,,,,,,,8494.118,1739090732.752,,,,,,,,,,
135,,,,,,,,,-127,-127,,,,,,,,,2021.0128,12958.743000000002,,-127,-127,,,,,,,8498.12,1739090736.756,,,,,,,,,,
136,,,,,,,,,-127,-127,,,,,,,,,2021.013,12958.742200000002,,-127,-127,,,,,,,8502.121,1739090740.76,,,,,,,,,,
137,,,,,,,,,-127,-127,,,,,,,,,2021.0148,12958.741800000002,,-127,-127,,,,,,,8510.122,1739090748.765,,,,,,,,,,
138,,,,,,,,,-127,-127,,,,,,,,,2021.0151,12958.741800000002,,-127,-127,,,,,,,8514.128,1739090752.774,,,,,,,,,,
139,,,,,,,,,-127,-127,,,,,,,,,2021.015,12958.7409,,-127,-127,,,,,,,8518.13,1739090756.778,,,,,,,,,,
140,,,,,,,,,-127,-127,,,,,,,,,2021.0154,12958.741500000002,,-127,-127,,,,,,,8522.131,1739090760.781,,,,,,,,,,
141,,,,,,,,,-127,-127,,,,,,,,,2021.0156000000002,12958.742300000002,,-127,-127,,,,,,,8530.132,1739090768.787,,,,,,,,,,
142,,,,,,,,,-127,-127,,,,,,,,,2021.0159,12958.743200000003,,-127,-127,,,,,,,8534.138,1739090772.795,,,,,,,,,,
143,,,,,,,,,-127,-127,,,,,,,,,2021.0159,12958.742700000003,,-127,-127,,,,,,,8538.14,1739090776.799,,,,,,,,,,
144,,,,,,,,,-127,-127,,,,,,,,,2021.0154,12958.743500000002,,-127,-127,,,,,,,8542.141,1739090780.802,,,,,,,,,,
145,,,,,,,,,-127,-127,,,,,,,,,,,,-127,10,,,,,,,8554.142,1739090792.81,,,,,,,,,,
146,,,,,,,,,-127,1,,,,,,,,,,,,-127,-127,,,,,,,8707.321,1739090946.079,,,,,,,,,,
147,0.4,430.0,0.0,2.113789,0.4538,2016.6599999999999,13007.54,0.0,0,1,14.996679,0.40010256,-1.0,32.956196,0.0,429.113,2879.492,-0.005789684,2021.0154,12958.743500000002,2.719223,1,10,2021.0153999570691,2.4920635,2.4833028,2.4881258,12958.743499999762,0.86742866,10451.547,1739092691.309,110.0,0.8552113,0.22038902,0.0,8.712798,0.0,25.75707,-1.0,0.0056586554,0.07004266
148,0.4,430.0,0.0,2.113789,0.4538,2016.6599999999999,13007.54,0.0,0,1,14.996679,0.40010256,-1.0,32.957443,0.0,429.0898,2879.492,-0.002894842,2021.0154,12958.743500000002,2.719223,1,10,2021.0153999570691,2.4920635,2.4833028,2.4881258,12958.743499999762,0.86742866,10462.093,1739092701.861,110.0,0.8552113,0.22038902,0.0,8.712798,0.0,25.803957,-1.0,0.0056586554,0.07004266
149,,,,,,,,,0,-127,15.001414,,,32.957443,,,,,,,,1,10,,2.491911,2.4833028,2.4881258,,,10462.093,1739092701.861,,,,,8.50252,,25.831306,,,
150,,,,,,,,,-127,-127,,,,,,,,,2021.0076000000001,12958.983,,-127,-127,,,,,,,10538.018,1739092777.83,,,,,,,,,,
151,,,,,,,,,-127,-127,,,,,,,,,2021.0065000000002,12958.9828,,-127,-127,,,,,,,10542.026,1739092781.84,,,,,,,,,,
152,,,,,,,,,-127,-127,,,,,,,,,2021.0071,12958.9837,,-127,-127,,,,,,,10546.028,1739092786.001,,,,,,,,,,
153,,,,,,,,,-127,0,,,,,,,,,,,,-127,-127,,,,,,,10550.029,1739092790.005,,,,,,,,,,
154,,,,,,,,,-127,-127,,,,,,,,,2021.0072,12958.9847,,-127,-127,,,,,,,10554.215,1739092794.194,,,,,,,,,,
155,,,,,,,,,-127,-127,,,,,,,,,2021.0074,12958.985999999999,,-127,-127,,,,,,,10558.216,1739092798.198,,,,,,,,,,
156,,,,,,,,,-127,-127,,,,,,,,,2021.0068,12958.986899999998,,-127,-127,,,,,,,10562.217,1739092802.201,,,,,,,,,,
157,,,,,,,,,-127,-127,,,,,,,,,2021.0077,12958.9872,,-127,-127,,,,,,,10566.218,1739092806.204,,,,,,,,,,
158,,,,,,,,,-127,-127,,,,,,,,,2021.0079,12958.9882,,-127,-127,,,,,,,10574.219,1739092814.208,,,,,,,,,,
159,,,,,,,,,-127,-127,,,,,,,,,2021.0077,12958.9882,,-127,-127,,,,,,,10578.225,1739092818.217,,,,,,,,,,
160,,,,,,,,,-127,-127,,,,,,,,,2021.0079,12958.989599999999,,-127,-127,,,,,,,10582.227,1739092822.222,,,,,,,,,,
161,,,,,,,,,-127,-127,,,,,,,,,2021.0076000000001,12958.99,,-127,-127,,,,,,,10586.228,1739092826.225,,,,,,,,,,
162,,,,,,,,,-127,-127,,,,,,,,,2021.0078,12958.9904,,-127,-127,,,,,,,10594.229,1739092834.23,,,,,,,,,,
163,,,,,,,,,-127,-127,,,,,,,,,2021.0071,12958.990099999999,,-127,-127,,,,,,,10598.234,1739092838.239,,,,,,,,,,
164,,,,,,,,,-127,-127,,,,,,,,,2021.0075000000002,12958.9917,,-127,-127,,,,,,,10602.236,1739092842.243,,,,,,,,,,
165,,,,,,,,,-127,-127,,,,,,,,,2021.0077,12958.9929,,-127,-127,,,,,,,10606.237,1739092846.246,,,,,,,,,,
166,,,,,,,,,-127,-127,,,,,,,,,2021.008,12958.9941,,-127,-127,,,,,,,10614.238,1739092854.25,,,,,,,,,,
167,,,,,,,,,-127,-127,,,,,,,,,2021.0082,12958.9954,,-127,-127,,,,,,,10618.244,1739092858.259,,,,,,,,,,
168,,,,,,,,,-127,-127,,,,,,,,,2021.0085000000001,12958.996599999999,,-127,-127,,,,,,,10622.246,1739092862.264,,,,,,,,,,
169,0.0,-390.0,0.0,2.3274002,,,,,-127,-127,,-0.025551282,,,2.1281974,-379.39075,,-0.005789684,2021.0087,12958.9978,2.719223,-127,-127,2021.008699957069,,,,12958.99779999976,0.86742866,10626.247,1739092866.267,,0.8552113,0.22038902,0.0,,,,,0.0036799873,0.07017857
170,,,,,-0.4538,,,,-127,-127,,,,,,,,,,,,-127,-127,,,,,,,10630.249,1739092870.272,,,,,,,,,,
171,,,,,,,,,-127,-127,,,,,,,,,,,,-127,-127,,,,,,,10639.99,1739092880.019,110.0,,,,,,,,,
172,,,,,,,,,0,-127,15.04771,,,32.974934,,,,,,,,0,99,,,,,,,10768.073,1739093008.175,,,,,6.505032,,26.323614,,,
173,,,,,,,,,-127,-127,,,,,,,,,,,,-127,-127,,,,,,,10780.079,1739093020.188,,0.23387411,,,,,,,,
174,0.038529456,-390.0,0.20360051,2.3249693,,,,,-127,-127,,0.13616666,,,64.82316,-379.4371,,0.1679008,,,1.9949113,-127,-127,2021.0290751776568,,,,12959.049172864448,-0.4712389,10928.791,1739093168.986,,,0.39761803,,,,,,,
175,,,,,-0.4538,,,,-127,-127,,,,,,,,,,,,-127,-127,,,,,,,10932.797,1739093172.994,,0.2687807,,,,,,,,
176,,,,,,,,,-127,-127,,,,,,,,,,,,-127,-127,,,,,,,10940.799,1739093181.0,110.0,,,,,,,,,
177,,,,,,,,,-127,-127,,,,,,,,,,,,-127,-127,,2.489713,2.4806776,2.485348,,,11064.804,1739093305.078,,,,,,,,,,
178,,,,,,,,,0,-127,15.267497,,,32.98119,,,,,,,,0,-127,,,,,,,11068.81,1739093309.085,,,,,6.4936566,,26.265007,,,
179,,,,,,,,,-127,-127,,,,,,,,,,,,-127,-127,,,,,,,11084.895,1739093325.179,,0.25481808,,,,,,,,
180,0.038529456,-390.0,0.15593974,2.322158,,,,,-127,-127,,0.13616666,,,123.56576,-379.6921,,0.2171131,,,2.3090706,-127,-127,2021.015372250156,,,,12959.100905300234,-0.54105204,11230.516,1739093470.884,,,0.37735415,,,,,,,
181,,,,,-0.4538,,,,-127,-127,,,,,,,,,,,,-127,-127,,,,,,,11234.522,1739093474.893,,,,,,,,,,
182,,,,,,,,,-127,-127,,,,,,,,,,,,-127,-127,,,,,,,11238.524,1739093478.897,,0.2443461,,,,,,,,
183,,,,,,,,,-127,-127,,,,,,,,,,,,-127,-127,,,,,,,11242.602,1739093482.977,110.0,,,,,,,,,
184,,,,,,,,,0,-127,15.303099,,,32.987446,,,,,,,,0,-127,,,,,,,11370.603,1739093611.052,,,,,6.5388327,,25.807863,,,
185,,,,,,,,,-127,-127,,,,,,,,,,,,-127,-127,,,,,,,11390.609,1739093631.07,,0.29496065,,,,,,,,
186,0.038529456,-390.0,0.23851883,2.3198426,,,,,-127,-127,,0.13616666,,,179.0509,-379.94714,,0.2811295,,,2.3492131,-127,-127,2020.9964109930906,,,,12959.145805247384,-0.49392816,11532.43,1739093772.973,,,0.32775602,,,,,,,
187,,,,,-0.4538,,,,-127,-127,,,,,,,,,,,,-127,-127,,,,,,,11536.436,1739093776.981,,,,,,,,,,
188,,,,,,,,,-127,-127,,,,,,,,,,,,-127,-127,,,,,,,11544.437,1739093784.986,110.0,0.30194196,,,,,,,,
189,,,,,,,,,-127,-127,,,,,,,,,,,,-127,-127,,2.4895298,2.480342,2.4850733,,,11668.521,1739093909.142,,,,,,,,,,
190,,,,,,,,,0,-127,15.320757,,,32.9937,,,,,,,,0,-127,,,,,,,11672.528,1739093913.151,,,,,6.620409,,24.674774,,,
191,,,,,,,,,-127,-127,,,,,,,,,,,,-127,-127,,,,,,,11696.531,1739093937.167,,0.30194196,,,,,,,,
192,0.038529456,-390.0,0.45,2.3206089,,,,,-127,-127,,0.13616666,,,226.89192,-380.08624,,0.4211731,,,1.860521,-127,-127,2020.9894283154936,,,,12959.190043420678,-0.47822022,11834.246,1739094074.962,,,0.28529158,,,,,,,
193,,,,,-0.4538,,,,-127,-127,,,,,,,,,,,,-127,-127,,,,,,,11838.252,1739094078.971,,,,,,,,,,
194,,,,,,,,,-127,-127,,,,,,,,,,,,-127,-127,,,,,,,11846.254,1739094086.977,110.0,,,,,,,,,
195,,,,,,,,,-127,-127,,,,,,,,,,,,-127,-127,,,,,,,11850.258,1739094090.984,,0.30194196,,,,,,,,
196,,,,,,,,,0,-127,15.330084,,,33.00117,,,,,,,,0,-127,,,,,,,11974.34,1739094215.137,,,,,6.7101107,,23.451818,,,
197,,,,,,,,,-127,-127,,,,,,,,,,,,-127,-127,,,,,,,12002.346,1739094243.16,,0.3036873,,,,,,,,
198,0.038529456,-390.0,0.22448947,2.3217802,,,,,-127,-127,,0.13616666,,,272.47443,-380.1558,,0.1881647,,,2.1485002,-127,-127,2020.9806437283792,,,,12959.230385841902,-0.4537856,12134.431,1739094375.321,,,0.27157572,,,,,,,
199,,,,,-0.4538,,,,-127,-127,,,,,,,,,,,,-127,-127,,,,,,,12140.168,1739094381.061,,,,,,,,,,
200,,,,,,,,,-127,-127,,,,,,,,,,,,-127,-127,,,,,,,12148.17,1739094389.067,110.0,,,,,,,,,
201,,,,,,,,,-127,-127,,,,,,,,,,,,-127,-127,,,,,,,12156.174,1739094397.076,,0.30717796,,,,,,,,
202,,,,,,,,,-127,-127,,,,,,,,,,,,-127,-127,,2.4891942,2.4799755,2.4845238,,,12272.263,1739094513.232,,,,,,,,,,
203,,,,,,,,,0,-127,15.333695,,,33.007427,,,,,,,,0,-127,,,,,,,12276.263,1739094517.234,,,,,6.7582116,,22.260122,,,
204,,,,,,,,,-127,-127,,,,,,,,,,,,-127,-127,,,,,,,12308.263,1739094549.252,,0.30892327,,,,,,,,
205,0.038529456,-390.0,0.26373497,2.3228462,,,,,-127,-127,,0.13464102,,,319.7291,-380.2717,,0.300969,,,2.443461,-127,-127,2020.9744243572566,,,,12959.274321922812,-0.48694685,12436.269,1739094677.333,,,0.24161032,,,,,,,
206,,,,,-0.4538,,,,-127,-127,,,,,,,,,,,,-127,-127,,,,,,,12440.275,1739094681.341,,,,,,,,,,
207,,,,,,,,,-127,-127,,,,,,,,,,,,-127,-127,,,,,,,12460.348,1739094701.425,,0.31415927,,,,,,,,
208,,,,,,,,,-127,-127,,,,,,,,,,,,-127,-127,,,,,,,12482.096,1739094723.185,110.0,,,,,,,,,
209,,,,,,,,,0,-127,15.334732,,,33.013683,,,,,,,,0,-127,,,,,,,12578.103,1739094819.249,,,,,6.817363,,21.166105,,,
210,,,,,,,,,-127,-127,,,,,,,,,,,,-127,-127,,,,,,,12614.109,1739094855.275,,0.31415927,,,,,,,,
211,0.038529456,-390.0,0.34030297,2.323971,,,,,-127,-127,,0.13464102,,,363.6829,-380.31808,,0.3371469,,,1.829105,-127,-127,2020.9634044563618,,,,12959.311632920333,-0.47822022,12738.195,1739094979.433,,,0.2181238,,,,,,,
212,,,,,-0.4538,,,,-127,-127,,,,,,,,,,,,-127,-127,,,,,,,12742.201,1739094983.441,,,,,,,,,,
213,,,,,,,,,-127,-127,,,,,,,,,,,,-127,-127,,,,,,,12766.202,1739095007.456,,0.31066862,,,,,,,,
214,,,,,,,,,-127,-127,,,,,,,,,,,,-127,-127,,,,,,,12782.208,1739095023.471,110.0,,,,,,,,,
215,,,,,,,,,-127,-127,,,,,,,,,,,,-127,-127,,2.4887362,2.4796703,2.4844017,,,12876.032,1739095117.349,,,,,,,,,,
216,,,,,,,,,0,-127,15.331738,,,33.021187,,,,,,,,0,-127,,,,,,,12880.039,1739095121.358,,,,,6.8631887,,20.165861,,,
217,,,,,,,,,-127,-127,,,,,,,,,,,,-127,-127,,,,,,,12920.04,1739095161.382,,0.31764993,,,,,,,,
218,0.038529456,-390.0,0.35395765,2.3261864,,,,,-127,-127,,0.13616666,,,407.767,-380.36444,,0.3523183,,,1.7924532,-127,-127,2020.9614904724097,,,,12959.354680113796,-0.4607669,13040.319,1739095281.731,,,0.30654478,,,,,,,
219,,,,,-0.4538,,,,-127,-127,,,,,,,,,,,,-127,-127,,,,,,,13044.325,1739095285.739,,,,,,,,,,
220,,,,,,,,,-127,-127,,,,,,,,,,,,-127,-127,,,,,,,13072.327,1739095313.757,,0.31939524,,,,,,,,
221,,,,,,,,,-127,-127,,,,,,,,,,,,-127,-127,,,,,,,13084.333,1739095325.769,110.0,,,,,,,,,
222,,,,,,,,,0,-127,15.334616,,,33.027443,,,,,,,,0,-127,,,,,,,13180.416,1739095421.909,,,,,6.935015,,19.130451,,,
223,,,,,,,,,-127,-127,,,,,,,,,,,,-127,-127,,,,,,,13226.029,1739095467.547,,0.31764993,,,,,,,,
224,0.038529456,-390.0,0.37028176,2.3288329,,,,,-127,-127,,0.13616666,,,450.6784,-380.2949,,0.3663227,,,1.7941985,-127,-127,2020.962779433311,,,,12959.397423450284,-0.47647488,13342.119,1739095583.705,,,0.20912491,,,,,,,
225,,,,,-0.4538,,,,-127,-127,,,,,,,,,,,,-127,-127,,,,,,,13346.125,1739095587.712,,,,,,,,,,
226,,,,,,,,,-127,-127,,,,,,,,,,,,-127,-127,,,,,,,13378.126,1739095619.733,,0.33161256,,,,,,,,
227,,,,,,,,,-127,-127,,,,,,,,,,,,-127,-127,,,,,,,13386.131,1739095627.742,110.0,,,,,,,,,
228,,,,,,,,,-127,-127,,,,,,,,,,,,-127,-127,,2.488492,2.4795787,2.484188,,,13478.137,1739095719.801,,,,,,,,,,
229,,,,,,,,,0,-127,15.331844,,,33.03367,,,,,,,,0,-127,,,,,,,13482.143,1739095723.809,,,,,6.987991,,18.118486,,,
230,,,,,,,,,-127,-127,,,,,,,,,,,,-127,-127,,,,,,,13530.222,1739095771.917,,0.3281219,,,,,,,,
231,0.038529456,-390.0,-0.019683013,2.3318334,,,,,-127,-127,,0.13616666,,,487.92184,-379.78485,,-0.01157936,,,2.5830872,-127,-127,2020.954036010688,,,,12959.428096646943,-0.46251225,13643.96,1739095885.72,,,0.20094058,,,,,,,
232,,,,,-0.4538,,,,-127,-127,,,,,,,,,,,,-127,-127,,,,,,,13647.966,1739095889.728,,,,,,,,,,
233,,,,,,,,,-127,-127,,,,,,,,,,,,-127,-127,,,,,,,13680.434,1739095922.214,,0.3211406,,,,,,,,
234,,,,,,,,,-127,-127,,,,,,,,,,,,-127,-127,,,,,,,13688.439,1739095930.224,110.0,,,,,,,,,
235,,,,,,,,,0,-127,15.327109,,,33.041172,,,,,,,,0,-127,,,,,,,13784.445,1739096026.286,,,,,7.039667,,17.071356,,,
236,,,,,,,,,-127,-127,,,,,,,,,,,,-127,-127,,,,,,,13832.521,1739096074.389,,0.32463124,,,,,,,,
237,0.038529456,-390.0,0.39587018,2.3340685,,,,,-127,-127,,0.13616666,,,526.3814,-379.3212,,0.4060017,,,2.3771384,-127,-127,2020.943564569133,,,,12959.459966833972,-0.46774822,13944.522,1739096186.455,,,0.19514422,,,,,,,
238,,,,,-0.4538,,,,-127,-127,,,,,,,,,,,,-127,-127,,,,,,,13948.528,1739096190.463,,,,,,,,,,
239,,,,,,,,,-127,-127,,,,,,,,,,,,-127,-127,,,,,,,13984.529,1739096226.485,,0.3351032,,,,,,,,
240,,,,,,,,,-127,-127,,,,,,,,,,,,-127,-127,,,,,,,14034.212,1739096276.196,110.0,,,,,,,,,
241,,,,,,,,,-127,-127,,,,,,,,,,,,-127,-127,,2.4880953,2.479121,2.483791,,,14078.218,1739096320.228,,,,,,,,,,
242,,,,,,,,,0,-127,15.31931,,,33.04869,,,,,,,,0,-127,,,,,,,14086.223,1739096328.237,,,,,7.1163683,,16.071112,,,
243,,,,,,,,,-127,-127,,,,,,,,,,,,-127,-127,,,,,,,14138.229,1739096380.274,,0.33859387,,,,,,,,
244,0.038529456,-390.0,0.38618124,2.3365664,,,,,-127,-127,,0.13616666,,,562.7997,-378.6025,,0.3721578,,,2.1345377,-127,-127,2020.9313317154556,,,,12959.487651093566,-0.4590216,14246.319,1739096488.426,,,0.21618444,,,,,,,
245,,,,,-0.4538,,,,-127,-127,,,,,,,,,,,,-127,-127,,,,,,,14250.325,1739096492.434,,,,,,,,,,
246,,,,,,,,,-127,-127,,,,,,,,,,,,-127,-127,,,,,,,14290.327,1739096532.459,,0.33161256,,,,,,,,
247,,,,,,,,,-127,-127,,,,,,,,,,,,-127,-127,,,,,,,14334.333,1739096576.491,110.0,,,,,,,,,
248,,,,,,,,,0,-127,15.317931,,,33.054947,,,,,,,,0,-127,,,,,,,14386.402,1739096628.589,,,,,7.1725945,,15.090403,,,
249,,,,,,,,,-127,-127,,,,,,,,,,,,-127,-127,,,,,,,14442.409,1739096684.629,,0.3351032,,,,,,,,
250,0.038529456,-390.0,0.3754718,2.3385196,,,,,-127,-127,,0.13616666,,,600.86835,-378.09247,,0.3861622,,,2.347468,-127,-127,2020.9191843259962,,,,12959.517312875676,-0.47472957,14548.095,1739096790.375,,,0.23952943,,,,,,,
251,,,,,-0.4538,,,,-127,-127,,,,,,,,,,,,-127,-127,,,,,,,14552.101,1739096794.384,,,,,,,,,,
252,,,,,,,,,-127,-127,,,,,,,,,,,,-127,-127,,,,,,,14596.102,1739096838.411,,0.3333579,,,,,,,,
253,,,,,,,,,-127,-127,,,,,,,,,,,,-127,-127,,,,,,,14636.109,1739096878.441,110.0,,,,,,,,,
254,,,,,,,,,-127,-127,,,,,,,,,,,,-127,-127,,2.4878511,2.478846,2.4835775,,,14680.114,1739096922.471,,,,,,,,,,
255,,,,,,,,,0,-127,15.310512,,,33.06242,,,,,,,,0,-127,,,,,,,14688.12,1739096930.481,,,,,7.2453957,,14.1096945,,,
256,,,,,,,,,-127,-127,,,,,,,,,,,,-127,-127,,,,,,,14748.184,1739096990.581,,0.3333579,,,,,,,,
257,0.038529456,-390.0,0.17440073,2.3405683,,,,,-127,-127,,0.13616666,,,638.8936,-377.37378,,0.1707956,,,2.050762,-127,-127,2020.9099486012844,,,,12959.549444033768,-0.4537856,14848.191,1739097090.645,,,0.2261221,,,,,,,
258,,,,,-0.4538,,,,-127,-127,,,,,,,,,,,,-127,-127,,,,,,,14852.197,1739097094.653,,,,,,,,,,
259,,,,,,,,,-127,-127,,,,,,,,,,,,-127,-127,,,,,,,14901.885,1739097144.37,,0.34208453,,,,,,,,
260,,,,,,,,,-127,-127,,,,,,,,,,,,-127,-127,,,,,,,14937.891,1739097180.397,110.0,,,,,,,,,
261,,,,,,,,,0,-127,15.300815,,,33.07117,,,,,,,,0,-127,,,,,,,14989.898,1739097232.433,,,,,7.2912216,,13.183687,,,
262,,,,,,,,,-127,-127,,,,,,,,,,,,-127,-127,,,,,,,15053.972,1739097296.543,,0.33859387,,,,,,,,
263,0.038529456,-390.0,0.21359488,2.345205,,,,,-127,-127,,0.1376923,,,672.53217,-376.67825,,0.2084286,,,1.998402,-127,-127,2020.9134041355303,,,,12959.58256905023,-0.4590216,15149.817,1739097392.445,,,0.17003919,,,,,,,
264,,,,,-0.4538,,,,-127,-127,,,,,,,,,,,,-127,-127,,,,,,,15153.823,1739097396.453,,,,,,,,,,
265,,,,,,,,,-127,-127,,,,,,,,,,,,-127,-127,,,,,,,15205.825,1739097448.485,,0.3403392,,,,,,,,
266,,,,,,,,,-127,-127,,,,,,,,,,,,-127,-127,,2.4875152,2.4786325,2.4832418,,,15281.891,1739097524.595,,,,,,,,,,
267,,,,,,,,,0,-127,15.29303,,,33.078693,,,,,,,,0,-127,,,,,,,15293.897,1739097536.607,,,,,7.348098,,12.35536,,,
268,,,,,,,,,-127,-127,,,,,,,,,,,,-127,-127,,,,,,,15347.509,1739097590.25,110.0,,,,,,,,,
269,,,,,,,,,-127,-127,,,,,,,,,,,,-127,-127,,,,,,,15359.515,1739097602.263,,0.33859387,,,,,,,,
270,0.038529456,-390.0,0.3130527,2.3498456,,,,,-127,-127,,0.13921794,,,705.5409,-376.0291,,0.2846305,,,2.035054,-127,-127,2020.915687463415,,,,12959.615081312164,-0.4660029,15451.589,1739097694.39,,,0.25470343,,,,,,,
271,,,,,-0.4538,,,,-127,-127,,,,,,,,,,,,-127,-127,,,,,,,15455.595,1739097698.399,,,,,,,,,,
272,,,,,,,,,-127,-127,,,,,,,,,,,,-127,-127,,,,,,,15511.598,1739097754.434,,0.3403392,,,,,,,,
273,,,,,,,,,0,-127,15.284973,,,33.086197,,,,,,,,0,-127,,,,,,,15595.685,1739097838.57,,,,,7.377673,,11.589548,,,
274,,,,,,,,,-127,-127,,,,,,,,,,,,-127,-127,,,,,,,15647.691,1739097890.606,110.0,,,,,,,,,
275,,,,,,,,,-127,-127,,,,,,,,,,,,-127,-127,,,,,,,15663.697,1739097906.621,,0.3403392,,,,,,,,
276,0.14833671,-390.0,0.34815255,2.3530765,,,,,-127,-127,,0.16820513,,,740.3087,-375.56546,,0.3639886,,,1.8430676,-127,-127,2020.9141900231373,,,,12959.648776925074,-0.47822022,15751.763,1739097994.737,,,0.18874943,,,,,,,
277,,,,,-0.4538,,,,-127,-127,,,,,,,,,,,,-127,-127,,,,,,,15755.769,1739097998.746,,,,,,,,,,
278,,,,,,,,,-127,-127,,,,,,,,,,,,-127,-127,,,,,,,15817.374,1739098060.386,,0.3403392,,,,,,,,
279,,,,,,,,,-127,-127,,,,,,,,,,,,-127,-127,,2.488553,2.4796398,2.4841576,,,15885.671,1739098128.722,,,,,,,,,,
280,,,,,,,,,0,-127,14.158812,,,33.191174,,,,,,,,0,-127,,,,,,,15897.677,1739098140.735,,,,,7.570727,,10.987839,,,
281,,,,,,,,,-127,-127,,,,,,,,,,,,-127,-127,,,,,,,15969.753,1739098212.853,,0.5427974,,,,,,,,
282,-0.35,110.0,-0.45,2.3532488,,,,,-127,-127,,-0.34288463,,,712.16437,110.15347,,-0.4515159,,,3.6006143,-127,-127,2020.903374165951,,,,12959.650241979716,0.7487463,16053.759,1739098296.908,,,0.31261304,,,,,,,
283,,,,,-0.4538,,,,-127,-127,,,,,,,,,,,,-127,-127,,,,,,,16057.765,1739098300.916,,,,,,,,,,
284,,,,,,,,,-127,-127,,,,,,,,,,,,-127,-127,,,,,,,16121.833,1739098365.021,,0.55152404,,,,,,,,
285,,,,,,,,,0,-127,14.994525,,,33.272434,,,,,,,,0,-127,,,,,,,16197.84,1739098441.072,,,,,7.7056046,,10.593211,,,
286,,,,,,,,,-127,-127,,,,,,,,,,,,-127,-127,,,,,,,16273.932,1739098517.207,,0.5550147,,,,,,,,
287,-0.35,110.0,-0.24355656,2.346128,,,,,-127,-127,,-0.34288463,,,618.958,110.57078,,-0.2659581,,,2.719223,-127,-127,2020.8644293445388,,,,12959.66796377058,0.72431165,16353.938,1739098597.259,,,0.3673512,,,,,,,
288,,,,,,,,,-127,-127,,,,,,,,,,,,-127,-127,,,,,,,16425.943,1739098669.307,,0.5550147,,,,,,,,
289,,,,,,,,,-127,-127,,,,,,,,,,,,-127,-127,,2.487332,2.4785104,2.4831502,,,16486.012,1739098729.41,,,,,,,,,,
290,,,,,,,,,0,-127,15.085087,,,33.288677,,,,,,,,0,-127,,,,,,,16498.018,1739098741.422,,,,,7.7150297,,10.300171,,,
291,,,,,,,,,-127,-127,,,,,,,,,,,,-127,-127,,,,,,,16578.025,1739098821.476,,0.51836276,,,,,,,,
292,-0.35,110.0,-0.3698871,2.3404884,,,,,-127,-127,,-0.34135896,,,527.55414,111.15037,,-0.3429821,,,2.9286625,-127,-127,2020.8310137637227,,,,12959.69617686396,0.75049156,16654.1,1739098897.593,,,0.28904417,,,,,,,
293,,,,,,,,,-127,-127,,,,,,,,,,,,-127,-127,,,,,,,16730.105,1739098973.644,,0.53930676,,,,,,,,
294,,,,,,,,,0,-127,15.105035,,,33.304947,,,,,,,,0,-127,,,,,,,16798.174,1739099041.751,,,,,7.674729,,10.401758,,,
295,,,,,,,,,-127,-127,,,,,,,,,,,,-127,-127,,,,,,,16882.182,1739099125.807,,0.5427974,,,,,,,,
296,-0.35,110.0,-0.37301835,2.3356197,,,,,-127,-127,,-0.34135896,,,440.51517,111.61404,,-0.3663227,,,2.687807,-127,-127,2020.7958561577418,,,,12959.71650665432,0.73129296,16954.268,1739099197.934,,,0.31912902,,,,,,,
297,,,,,,,,,-127,-127,,,,,,,,,,,,-127,-127,,,,,,,17034.271,1739099277.985,,0.5375614,,,,,,,,
298,,,,,,,,,-127,-127,,,,,,,,,,,,-127,-127,,2.4872406,2.4784493,2.4831808,,,17086.275,1739099330.02,,,,,,,,,,
299,,,,,,,,,0,-127,15.112982,,,33.32117,,,,,,,,0,-127,,,,,,,17098.281,1739099342.032,,,,,7.6194777,,10.917509,,,
300,,,,,,,,,-127,-127,,,,,,,,,,,,-127,-127,,,,,,,17186.354,1739099430.156,,0.52534413,,,,,,,,
301,-0.35,110.0,-0.45,2.3318074,,,,,-127,-127,,-0.34135896,,,355.19183,111.72996,,-0.4351775,,,2.645919,-127,-127,2020.7648296209195,,,,12959.743545297324,0.71733034,17254.361,1739099498.202,,,0.35021368,,,,,,,
302,,,,,,,,,-127,-127,,,,,,,,,,,,-127,-127,,,,,,,17338.432,1739099582.32,,0.52185345,,,,,,,,
303,,,,,,,,,0,-127,15.118435,,,33.337444,,,,,,,,0,-127,,,,,,,17398.438,1739099642.361,,,,,7.528151,,11.851331,,,
304,,,,,,,,,-127,-127,,,,,,,,,,,,-127,-127,,,,,,,17490.51,1739099734.487,,0.5270894,,,,,,,,
305,-0.35,110.0,-0.33686826,2.3277447,,,,,-127,-127,,-0.34135896,,,272.431,111.98498,,-0.3289777,,,2.8291788,-127,-127,2020.730929527256,,,,12959.762729805081,0.7033677,17554.518,1739099798.531,,,0.29345575,,,,,,,
306,,,,,,,,,-127,-127,,,,,,,,,,,,-127,-127,,,,,,,17642.605,1739099886.668,,0.50963616,,,,,,,,
307,,,,,,,,,-127,-127,,,,,,,,,,,,-127,-127,,2.4873931,2.4787545,2.4833333,,,17686.607,1739099930.698,,,,,,,,,,
308,,,,,,,,,0,-127,15.124126,,,33.352436,,,,,,,,0,-127,,,,,,,17698.613,1739099942.709,,,,,7.469975,,12.875018,,,
309,,,,,,,,,-127,-127,,,,,,,,,,,,-127,-127,,,,,,,17794.62,1739100038.772,,0.4886922,,,,,,,,
310,-0.35,110.0,-0.308855,2.3250418,,,,,-127,-127,,-0.34135896,,,191.32062,112.24,,-0.2729602,,,2.9077184,-127,-127,2020.7025950929374,,,,12959.789884612033,0.72082096,17854.691,1739100098.878,,,0.27639604,,,,,,,
311,,,,,,,,,-127,-127,,,,,,,,,,,,-127,-127,,,,,,,17946.7,1739100190.939,,0.48520154,,,,,,,,
312,,,,,,,,,0,-127,15.125893,,,33.36869,,,,,,,,0,-127,,,,,,,17998.766,1739100243.036,,,,,7.407249,,14.035458,,,
313,,,,,,,,,-127,-127,,,,,,,,,,,,-127,-127,,,,,,,18098.773,1739100343.1,,0.46425757,,,,,,,,
314,-0.35,110.0,-0.40706888,2.3232868,,,,,-127,-127,,-0.33983332,,,118.744736,112.19363,,-0.4036677,,,2.8920107,-127,-127,2020.6743764377072,,,,12959.807802850304,0.726057,18154.844,1739100399.203,,,0.16168354,,,,,,,
315,,,,,,,,,-127,-127,,,,,,,,,,,,-127,-127,,,,,,,18250.846,1739100495.26,,0.46251225,,,,,,,,
316,,,,,,,,,-127,-127,,,,,,,,,,,,-127,-127,,2.4879427,2.4789987,2.483608,,,18286.85,1739100531.286,,,,,,,,,,
317,,,,,,,,,0,-127,15.129561,,,33.383682,,,,,,,,0,-127,,,,,,,18298.855,1739100543.297,,,,,7.249621,,15.578803,,,
318,,,,,,,,,-127,-127,,,,,,,,,,,,-127,-127,,,,,,,18402.947,1739100647.45,,0.43807763,,,,,,,,
319,-0.35,110.0,-0.117967576,2.3251388,,,,,-127,-127,,-0.33983332,,,61.23997,112.40228,,-0.08105558,,,2.5446901,-127,-127,2020.6568093858832,,,,12959.828551030312,0.6789331,18454.953,1739100699.486,,,0.19006479,,,,,,,
320,,,,,,,,,-127,-127,,,,,,,,,,,,-127,-127,,,,,,,18555.021,1739100799.612,,0.45029494,,,,,,,,
321,,,,,,,,,0,-127,15.133747,,,33.398693,,,,,,,,0,-127,,,,,,,18599.03,1739100843.644,,,,,7.159594,,17.337046,,,
322,,,,,,,,,-127,-127,,,,,,,,,,,,-127,-127,,,,,,,18707.295,1739100951.973,,0.44854963,,,,,,,,
323,-0.35,110.0,-0.44066632,2.3258762,,,,,-127,-127,,-0.34135896,,,2.0630486,112.47183,,-0.418839,,,2.942625,-127,-127,2020.63510803275,,,,12959.845103092825,0.705113,18755.3,1739101000.006,,,0.26876917,,,,,,,
324,,,,,0.4538,,,,-127,-127,,,,,,,,,,,,-127,-127,,,,,,,18759.307,1739101004.015,,,,,,,,,,
325,,,,,,,,,-127,0,,,,,,,,,,,,-127,-127,,,,,,,18768.053,1739101012.766,,,,,,,,,,
326,,,,,,,,,-127,-127,,,,,,,,,2020.489,13000.3482,,-127,-127,,,,,,,18820.236,1739101064.979,,,,,,,,,,
327,,,,,,,,,-127,-127,,,,,,,,,2020.4886000000001,13000.348899999999,,-127,-127,,,,,,,18824.281,1739101069.027,,,,,,,,,,
328,,,,,,,,,-127,-127,,,,,,,,,2020.4881,13000.3495,,-127,-127,,,,,,,18828.283,1739101073.03,,,,,,,,,,
329,,,,,,,,,-127,-127,,,,,,,,,2020.4877000000001,13000.349999999999,,-127,-127,,,,,,,18832.283,1739101077.034,,,,,,,,,,
330,,,,,,,,,-127,-127,,,,,,,,,2020.4885000000002,13000.3512,,-127,-127,,,,,,,18836.283,1739101081.036,,,,,,,,,,
331,,,,,,,,,-127,-127,,,,,,,,,2020.4879,13000.352299999999,,-127,-127,,,,,,,18844.283,1739101089.041,,,,,,,,,,
332,,,,,,,,,-127,-127,,,,,,,,,2020.4877000000001,13000.353299999999,,-127,-127,,,,,,,18848.29,1739101093.048,,,,,,,,,,
333,,,,,,,,,-127,-127,,,,,,,,,2020.4882,13000.3537,,-127,-127,,,,,,,18852.354,1739101097.116,,,,,,,,,,
334,,,,,,,,,-127,-127,,,,,,,,,2020.4878,13000.3548,,-127,-127,,,,,,,18856.354,1739101101.117,,,,,,,,,,
335,,,,,,,,,-127,-127,,,,,,,,,2020.4877000000001,13000.354099999999,,-127,-127,,,,,,,18864.354,1739101109.122,,,,,,,,,,
336,,,,,,,,,-127,-127,,,,,,,,,2020.4873,13000.355899999997,,-127,-127,,,,,,,18868.357,1739101113.128,,,,,,,,,,
337,,,,,,,,,-127,-127,,,,,,,,,2020.4868000000001,13000.356599999997,,-127,-127,,,,,,,18872.36,1739101117.131,,,,,,,,,,
338,,,,,,,,,-127,-127,,,,,,,,,2020.4868000000001,13000.356899999997,,-127,-127,,,,,,,18876.36,1739101121.135,,,,,,,,,,
339,,,,,,,,,-127,-127,,,,,,,,,2020.4864,13000.357699999999,,-127,-127,,,,,,,18884.361,1739101129.14,,,,,,,,,,
340,,,,,,,,,-127,-127,,,,,,,,,,,,-127,-127,,2.491697,2.4829977,2.4876068,,,18888.367,1739101133.15,,,,,,,,,,
341,,,,,,,,,-127,-127,,,,,,,,,,,,-127,10,,,,,,,18892.367,1739101137.153,,,,,,,,,,
342,,,,,,,,,0,-127,15.037385,,,33.45869,,,,,,,,1,-127,,,,,,,18900.367,1739101145.157,,,,,8.163213,,18.81006,,,
343,,,,,,,,,-127,1,,,,,,,,,,,,-127,-127,,,,,,,19069.588,1739101314.473,,,,,,,,,,
344,,,,,,,,,-127,-127,,,,,,,,,,,,-127,9,,,,,,,19195.566,1739101440.525,,,,,,,,,,
345,,,,,,,,,0,-127,15.013042,,,33.486156,,,,,,,,1,-127,,,,,,,19203.572,1739101448.537,,,,,8.699799,,20.326056,,,
346,0.4,430.0,0.0,2.8361852,0.4538,2026.28,13007.54,0.0,0,1,14.993287,0.4016282,-1.0,34.62495,0.0,430.17944,2879.492,-0.002894842,2018.629,13003.1841,3.5499997,1,10,2018.6289999567985,2.491575,2.4826617,2.4871185,13003.184099999758,0.66497046,37879.81,1739120134.83,110.0,0.47996554,0.25189936,0.0,8.681923,0.0,21.537289,-1.0,0.16107039,-0.00835552
347,,,,,,,,,0,-127,14.990345,,,34.628674,,,,,,,,1,0,,,,,,,37924.47,1739120179.516,,,,,8.649747,,21.752186,,,
348,0.4,430.0,0.0,2.8361852,0.4538,2026.28,13007.54,0.0,0,1,14.990961,0.40010256,-1.0,34.669933,0.0,429.6926,2879.492,-0.002894842,2018.629,13003.1841,3.5499997,1,10,2018.6289999567985,2.4917278,2.4828448,2.487271,13003.184099999758,0.66497046,38374.82,1739120630.129,110.0,0.47996554,0.25189936,0.0,8.620822,0.0,23.322882,-1.0,0.16107039,-0.00835552
349,,,,,,,,,0,-127,14.994162,,,34.671158,,,,,,,,1,10,,2.4914834,2.4827533,2.4874542,,,38374.82,1739120630.129,,,,,8.593196,,23.315067,,,
350,0.4,430.0,0.0,2.8361852,0.4538,2026.28,13007.54,0.0,0,1,15.002982,0.40010256,-1.0,34.683666,0.0,429.6462,2879.492,-0.002894842,2018.629,13003.1841,3.5499997,1,9,2018.6289999567985,2.491453,2.4827228,2.4874237,13003.184099999758,0.66497046,38530.84,1739120786.239,110.0,0.47996554,0.25189936,0.0,8.582146,0.0,23.690159,-1.0,0.16107039,-0.00835552
351,,,,,,,,,-127,-127,,,,,,,,,2018.6239999999998,13003.165299999999,,-127,-127,,,,,,,38565.64,1739120821.057,,,,,,,,,,
352,,,,,,,,,-127,0,,,,,,,,,2018.6254,13003.165799999999,,-127,-127,,,,,,,38573.645,1739120829.999,,,,,,,,,,
353,,,,,,,,,-127,-127,,,,,,,,,2018.6239999999998,13003.1657,,-127,-127,,,,,,,38577.83,1739120834.186,,,,,,,,,,
354,,,,,,,,,-127,-127,,,,,,,,,2018.6246999999998,13003.166299999999,,-127,-127,,,,,,,38581.83,1739120838.189,,,,,,,,,,
355,,,,,,,,,-127,-127,,,,,,,,,2018.6236,13003.166299999999,,-127,-127,,,,,,,38585.83,1739120842.191,,,,,,,,,,
356,,,,,,,,,-127,-127,,,,,,,,,2018.6231999999998,13003.168099999999,,-127,-127,,,,,,,38589.83,1739120846.194,,,,,,,,,,
357,,,,,,,,,-127,-127,,,,,,,,,2018.6230999999998,13003.1667,,-127,-127,,,,,,,38597.832,1739120854.199,,,,,,,,,,
358,,,,,,,,,-127,-127,,,,,,,,,2018.6237999999998,13003.167099999999,,-127,-127,,,,,,,38601.836,1739120858.207,,,,,,,,,,
359,,,,,,,,,-127,-127,,,,,,,,,2018.6247999999998,13003.1683,,-127,-127,,,,,,,38605.84,1739120862.21,,,,,,,,,,
360,,,,,,,,,-127,-127,,,,,,,,,2018.6257,13003.168099999999,,-127,-127,,,,,,,38609.84,1739120866.214,,,,,,,,,,
361,,,,,,,,,-127,-127,,,,,,,,,2018.6253,13003.1674,,-127,-127,,,,,,,38617.84,1739120874.219,,,,,,,,,,
362,,,,,,,,,-127,-127,,,,,,,,,2018.6245999999999,13003.1675,,-127,-127,,,,,,,38621.848,1739120878.228,,,,,,,,,,
363,,,,,,,,,-127,-127,,,,,,,,,2018.6243999999997,13003.1672,,-127,-127,,,,,,,38625.848,1739120882.232,,,,,,,,,,
364,,,,,,,,,-127,-127,,,,,,,,,2018.625,13003.1667,,-127,-127,,,,,,,38629.848,1739120886.235,,,,,,,,,,
365,,,,,,,,,-127,-127,,,,,,,,,2018.6256,13003.166299999999,,-127,-127,,,,,,,38637.848,1739120894.239,,,,,,,,,,
366,,,,,,,,,-127,-127,,,,,,,,,2018.6261,13003.165899999998,,-127,-127,,,,,,,38641.85,1739120898.247,,,,,,,,,,
367,,,,,,,,,-127,-127,,,,,,,,,2018.6266,13003.1655,,-127,-127,,,,,,,38645.855,1739120902.251,,,,,,,,,,
368,,,,,,,,,-127,-127,,,,,,,,,2018.6271,13003.165099999998,,-127,-127,,,,,,,38649.855,1739120906.255,,,,,,,,,,
369,0.0,-390.0,0.0,6.175049,,,,,-127,-127,,-0.025551282,,,2.4029763,-380.80493,,-0.005789684,2018.6277,13003.164700000001,,-127,-127,2018.6276999567988,,,,13003.164699999761,,38657.86,1739120914.26,,,,,,,,,0.16128,-0.008299189
370,,,,,-0.4538,,,,-127,-127,,,,,,,,,,,0.5427974,-127,-127,,,,,,-0.46774822,38661.863,1739120918.269,,0.2984513,0.20344156,,,,,,,
371,,,,,,,,,-127,-127,,,,,,,,,,,,-127,-127,,,,,,,38671.48,1739120927.893,110.0,,,,,,,,,
372,,,,,,,,,0,-127,15.0229025,,,34.691174,,,,,,,,0,99,,,,,,,38679.49,1739120935.902,,,,,6.5950584,,24.116043,,,
373,,,,,,,,,-127,-127,,,,,,,,,,,,-127,-127,,,,,,,38815.57,1739121072.066,,0.23387411,,,,,,,,
374,0.15688191,-390.0,0.21463534,6.197852,,,,,-127,-127,,0.13616666,,,67.850815,-380.82812,,0.2113234,,,,-127,-127,2018.6864135389744,,,,13003.179217682926,,38961.26,1739121217.84,,,,,,,,,,
375,,,,,-0.4538,,,,-127,-127,,,,,,,,,,,6.2325706,-127,-127,,,,,,-0.48171088,38965.27,1739121221.849,,,0.34057215,,,,,,,
376,,,,,,,,,-127,-127,,,,,,,,,,,,-127,-127,,,,,,,38969.27,1739121225.853,,0.21118484,,,,,,,,
377,,,,,,,,,-127,-127,,,,,,,,,,,,-127,-127,,,,,,,38973.27,1739121229.856,110.0,,,,,,,,,
378,,,,,,,,,0,-127,15.234028,,,34.69746,,,,,,,,0,-127,,2.4894078,2.480342,2.4851038,,,38981.27,1739121237.86,,,,,6.571658,,24.487228,,,
379,,,,,,,,,-127,-127,,,,,,,,,,,,-127,-127,,,,,,,39121.363,1739121378.032,,0.24783675,,,,,,,,
380,0.07225072,-390.0,0.047216073,6.213772,,,,,-127,-127,,0.13464102,,,129.51906,-381.12952,,0.1013194,,,,-127,-127,2018.7436745005857,,,,13003.199361711842,,39262.97,1739121519.719,,,,,,,,,,
381,,,,,-0.4538,,,,-127,-127,,,,,,,,,,,0.3403392,-127,-127,,,,,,-0.4834562,39266.973,1739121523.727,,,0.3701166,,,,,,,
382,,,,,,,,,-127,-127,,,,,,,,,,,,-127,-127,,,,,,,39274.977,1739121531.733,110.0,0.27576202,,,,,,,,
383,,,,,,,,,0,-127,15.280239,,,34.703686,,,,,,,,0,-127,,,,,,,39282.98,1739121539.743,,,,,6.570683,,24.467691,,,
384,,,,,,,,,-127,-127,,,,,,,,,,,,-127,-127,,,,,,,39427.08,1739121683.923,,0.286234,,,,,,,,
385,0.07225072,-390.0,0.096948095,6.2192187,,,,,-127,-127,,0.13464102,,,181.71658,-381.38452,,0.1071091,,,,-127,-127,2018.7877321853707,,,,13003.211222956523,,39564.77,1739121821.696,,,,,,,,,,
386,,,,,-0.4538,,,,-127,-127,,,,,,,,,,,6.049311,-127,-127,,,,,,-0.4660029,39568.777,1739121825.704,,,0.3626431,,,,,,,
387,,,,,,,,,-127,-127,,,,,,,,,,,,-127,-127,,,,,,,39576.777,1739121833.709,110.0,,,,,,,,,
388,,,,,,,,,-127,-127,,,,,,,,,,,,-127,-127,,,,,,,39580.78,1739121837.717,,0.29147,,,,,,,,
389,,,,,,,,,0,-127,15.301827,,,34.709908,,,,,,,,0,-127,,2.4893773,2.4802809,2.4847984,,,39584.785,1739121841.72,,,,,6.6490097,,23.783932,,,
390,,,,,,,,,-127,-127,,,,,,,,,,,,-127,-127,,,,,,,39732.863,1739121989.886,,0.30717796,,,,,,,,
391,0.07225072,-390.0,0.37290764,6.222086,,,,,-127,-127,,0.13311538,,,230.93823,-381.5468,,0.3803271,,,,-127,-127,2018.83075861618,,,,13003.220533719452,,39866.555,1739122123.655,,,,,,,,,,
392,,,,,-0.4538,,,,-127,-127,,,,,,,,,,,5.8346357,-127,-127,,,,,,-0.4904375,39870.562,1739122127.663,,,0.25976914,,,,,,,
393,,,,,,,,,-127,-127,,,,,,,,,,,,-127,-127,,,,,,,39878.562,1739122135.668,110.0,,,,,,,,,
394,,,,,,,,,0,-127,15.314943,,,34.71742,,,,,,,,0,-127,,,,,,,39886.566,1739122143.678,,0.29147,,,6.735461,,22.756336,,,
395,,,,,,,,,-127,-127,,,,,,,,,,,,-127,-127,,,,,,,40038.65,1739122295.848,,0.30194196,,,,,,,,
396,0.07225072,-390.0,0.2528001,6.2225122,,,,,-127,-127,,0.13311538,,,277.5967,-381.59317,,0.2612899,,,,-127,-127,2018.869890533037,,,,13003.225844310888,,40168.348,1739122425.62,,,,,,,,,,
397,,,,,-0.4538,,,,-127,-127,,,,,,,,,,,5.904449,-127,-127,,,,,,-0.47822022,40172.35,1739122429.627,,,0.294666,,,,,,,
398,,,,,,,,,-127,-127,,,,,,,,,,,,-127,-127,,,,,,,40180.355,1739122437.634,110.0,,,,,,,,,
399,,,,,,,,,0,-127,15.318306,,,34.72371,,,,,,,,0,-127,,2.489072,2.4799755,2.4845543,,,40188.36,1739122445.642,,,,,6.781612,,21.728743,,,
400,,,,,,,,,-127,-127,,,,,,,,,,,,-127,-127,,,,,,,40192.363,1739122449.65,,0.30543262,,,,,,,,
401,,,,,,,,,-127,-127,,,,,,,,,,,,-127,-127,,,,,,,40344.45,1739122601.824,,0.30717796,,,,,,,,
402,0.07225072,-390.0,0.2768808,6.2220483,,,,,-127,-127,,0.13311538,,,323.6904,-381.66272,,0.2752943,,,,-127,-127,2018.9127446109787,,,,13003.243032160603,,40468.453,1739122725.902,,,,,,,,,,
403,,,,,-0.4538,,,,-127,-127,,,,,,,,,,,6.2308254,-127,-127,,,,,,-0.46949357,40472.46,1739122729.91,,,0.23890387,,,,,,,
404,,,,,,,,,0,-127,15.32245,,,34.72993,,,,,,,,0,-127,,,,,,,40490.08,1739122747.537,110.0,,,,6.8482385,,20.755848,,,
405,,,,,,,,,-127,-127,,,,,,,,,,,,-127,-127,,,,,,,40498.156,1739122755.619,,0.29147,,,,,,,,
406,,,,,,,,,-127,-127,,,,,,,,,,,,-127,-127,,,,,,,40650.156,1739122907.709,,0.30717796,,,,,,,,
407,0.07225072,-390.0,0.12980779,6.2185388,,,,,-127,-127,,0.13464102,,,367.1992,-381.77866,,0.1302678,,,,-127,-127,2018.95452889912,,,,13003.26654903345,,40770.258,1739123027.878,,,,,,,,,,
408,,,,,-0.4538,,,,-127,-127,,,,,,,,,,,6.1627574,-127,-127,,,,,,-0.46949357,40774.266,1739123031.886,,,0.24074334,,,,,,,
409,,,,,,,,,0,-127,15.327388,,,34.736156,,,,,,,,0,-127,,2.4887362,2.4797313,2.4844627,,,40790.266,1739123047.897,110.0,,,,6.8846393,,19.779047,,,
410,,,,,,,,,-127,-127,,,,,,,,,,,,-127,-127,,,,,,,40802.27,1739123059.91,,0.31415927,,,,,,,,
411,,,,,,,,,-127,-127,,,,,,,,,,,,-127,-127,,,,,,,40955.633,1739123213.36,,0.31764993,,,,,,,,
412,-0.35,110.0,0.119681396,6.2093883,,,,,-127,-127,,-0.34135896,,,403.25742,-88.321045,,0.1476369,,,,-127,-127,2018.9841269755816,,,,13003.274862728573,,41071.73,1739123329.526,,,,,,,,,,
413,,,,,-0.4538,,,,-127,-127,,,,,,,,,,,6.1313415,-127,-127,,,,,,0.47647488,41075.74,1739123333.534,,,0.10448821,,,,,,,
414,,,,,,,,,0,-127,14.352759,,,34.827404,,,,,,,,0,-127,,,,,,,41091.74,1739123349.544,110.0,,,,7.153744,,18.86867,,,
415,,,,,,,,,-127,-127,,,,,,,,,,,,-127,-127,,,,,,,41107.746,1739123365.56,,0.47298422,,,,,,,,
416,,,,,,,,,-127,-127,,,,,,,,,,,,-127,-127,,,,,,,41259.85,1739123517.752,,0.5497787,,,,,,,,
417,-0.35,110.0,-0.23060872,6.205112,,,,,-127,-127,,-0.34135896,,,329.83768,110.24621,,-0.2431667,,,,-127,-127,2019.0117832502074,,,,13003.33212429777,,41371.938,1739123629.903,,,,,,,,,,
418,,,,,,,,,-127,-127,,,,,,,,,,,0.31066862,-127,-127,,,,,,0.7278023,41375.938,1739123633.905,,,0.28452873,,,,,,,
419,,,,,,,,,0,-127,15.069138,,,34.871162,,,,,,,,0,-127,,2.488675,2.479182,2.4840355,,,41391.938,1739123649.915,,,,,7.235646,,18.134115,,,
420,,,,,,,,,-127,-127,,,,,,,,,,,,-127,-127,,,,,,,41411.94,1739123669.932,,0.52883476,,,,,,,,
421,,,,,,,,,-127,-127,,,,,,,,,,,,-127,-127,,,,,,,41564.023,1739123822.101,,0.5009095,,,,,,,,
422,-0.35,110.0,-0.2670959,6.2075057,,,,,-127,-127,,-0.34135896,,,249.40178,110.94172,,-0.2927998,,,,-127,-127,2019.0574418049923,,,,13003.367248991965,,41672.027,1739123930.169,,,,,,,,,,
423,,,,,,,,,-127,-127,,,,,,,,,,,0.33161256,-127,-127,,,,,,0.71733034,41676.035,1739123934.177,,,0.3041784,,,,,,,
424,,,,,,,,,0,-127,15.145386,,,34.88618,,,,,,,,0,-127,,,,,,,41692.035,1739123950.189,,,,,7.2180953,,17.923126,,,
425,,,,,,,,,-127,-127,,,,,,,,,,,,-127,-127,,,,,,,41716.043,1739123974.208,,0.5235988,,,,,,,,
426,,,,,,,,,-127,-127,,,,,,,,,,,,-127,-127,,,,,,,41868.125,1739124126.378,,0.50440013,,,,,,,,
427,-0.35,110.0,-0.2984808,6.210816,,,,,-127,-127,,-0.33983332,,,168.96588,111.21992,,-0.300969,,,,-127,-127,2019.1045050329353,,,,13003.401283018533,,41972.21,1739124230.522,,,,,,,,,,
428,,,,,,,,,-127,-127,,,,,,,,,,,6.1662483,-127,-127,,,,,,0.69115037,41976.215,1739124234.53,,,0.31111062,,,,,,,
429,,,,,,,,,0,-127,15.170008,,,34.901196,,,,,,,,0,-127,,2.4884005,2.4794567,2.4842796,,,41992.22,1739124250.542,,,,,7.1670694,,18.118486,,,
430,,,,,,,,,-127,-127,,,,,,,,,,,,-127,-127,,,,,,,42020.223,1739124278.565,,0.4956735,,,,,,,,
431,,,,,,,,,-127,-127,,,,,,,,,,,,-127,-127,,,,,,,42172.305,1739124430.733,,0.44854963,,,,,,,,
432,-0.35,110.0,-0.28277323,6.205342,,,,,-127,-127,,-0.33983332,,,99.99911,111.54449,,-0.2834635,,,,-127,-127,2019.1412676338668,,,,13003.4437543475,,42272.402,1739124530.888,,,,,,,,,,
433,,,,,,,,,-127,-127,,,,,,,,,,,0.3298672,-127,-127,,,,,,0.6928957,42276.406,1739124534.896,,,0.19803466,,,,,,,
434,,,,,,,,,0,-127,15.178256,,,34.91621,,,,,,,,0,-127,,,,,,,42292.41,1739124550.908,,,,,7.093293,,18.802246,,,
435,,,,,,,,,-127,-127,,,,,,,,,,,,-127,-127,,,,,,,42324.418,1739124582.933,,0.43982297,,,,,,,,
436,,,,,,,,,-127,-127,,,,,,,,,,,,-127,-127,,,,,,,42476.496,1739124735.101,,0.42586035,,,,,,,,
437,-0.35,110.0,-0.1832856,6.1938734,,,,,-127,-127,,-0.34135896,,,44.02198,111.77632,,-0.1852698,,,,-127,-127,2019.1751402872828,,,,13003.469587933547,,42572.504,1739124831.163,,,,,,,,,,
438,,,,,,,,,-127,-127,,,,,,,,,,,6.1522856,-127,-127,,,,,,0.6824237,42576.51,1739124835.171,,,0.23020527,,,,,,,
439,,,,,,,,,0,-127,15.183231,,,34.931164,,,,,,,,0,-127,,2.4887974,2.4797618,2.4845238,,,42592.59,1739124851.258,,,,,6.9636154,,19.990036,,,
440,,,,,,,,,-127,-127,,,,,,,,,,,,-127,-127,,,,,,,42628.59,1739124887.28,,0.47822022,,,,,,,,
441,,,,,,,,,-127,-127,,,,,,,,,,,,-127,-127,,,,,,,42780.87,1739125039.651,,0.4223697,,,,,,,,
442,,,,,0.4538,,,,-127,-127,,,,,,,,,,,,-127,-127,,,,,,,42784.88,1739125043.659,,,,,,,,,,
443,,,,,,,,,-127,0,,,,,,,,,,,,-127,-127,,,,,,,42793.72,1739125052.503,,,,,,,,,,
444,,,,,,,,,-127,-127,,,,,,,,,2019.1459,13003.466999999999,,-127,-127,,,,,,,42837.848,1739125096.66,,,,,,,,,,
445,,,,,,,,,-127,-127,,,,,,,,,2019.1455,13003.468499999999,,-127,-127,,,,,,,42845.918,1739125104.733,,,,,,,,,,
446,,,,,,,,,-127,-127,,,,,,,,,2019.1456,13003.469099999998,,-127,-127,,,,,,,42849.92,1739125108.741,,,,,,,,,,
447,,,,,,,,,-127,-127,,,,,,,,,2019.1458,13003.468799999999,,-127,-127,,,,,,,42853.92,1739125112.745,,,,,,,,,,
448,,,,,,,,,-127,-127,,,,,,,,,2019.1459,13003.4694,,-127,-127,,,,,,,42857.926,1739125116.747,,,,,,,,,,
449,,,,,,,,,-127,-127,,,,,,,,,2019.1461,13003.470599999999,,-127,-127,,,,,,,42865.926,1739125124.751,,,,,,,,,,
450,,,,,,,,,-127,-127,,,,,,,,,2019.1447999999998,13003.4704,,-127,-127,,,,,,,42869.93,1739125128.759,,,,,,,,,,
451,,,,,,,,,-127,-127,,,,,,,,,2019.1441999999997,13003.4707,,-127,-127,,,,,,,42873.93,1739125132.763,,,,,,,,,,
452,,,,,,,,,-127,-127,,,,,,,,,2019.1453,13003.471,,-127,-127,,,,,,,42877.934,1739125136.767,,,,,,,,,,
453,,,,,,,,,-127,-127,,,,,,,,,2019.1446999999998,13003.4714,,-127,-127,,,,,,,42885.934,1739125144.772,,,,,,,,,,
454,,,,,,,,,-127,-127,,,,,,,,,2019.1446999999998,13003.4714,,-127,-127,,,,,,,42889.938,1739125148.781,,,,,,,,,,
455,,,,,,,,,0,-127,15.110343,,,34.987446,,,,,2019.1447999999998,13003.471599999999,,0,-127,,,,,,,42893.94,1739125152.785,,,,,7.2785463,,21.04889,,,
456,,,,,,,,,-127,-127,,,,,,,,,,,,-127,10,,,,,,,42901.94,1739125160.791,,,,,,,,,,
