i,c_battpos,c_de_oil_vol,c_fin,c_heading,c_pitch,c_wpt_lat,c_wpt_lon,m_altitude,m_argos_is_xmitting,m_argos_on,m_battery,m_battpos,m_climb_tot_time,m_coulomb_amphr_total,m_depth,m_de_oil_vol,m_digifin_leakdetect_reading,m_dive_tot_time,m_fin,m_gps_lat,m_gps_lon,m_heading,m_iridium_on,m_iridium_status,m_lat,m_leakdetect_voltage,m_leakdetect_voltage_forward,m_leakdetect_voltage_science,m_lon,m_pitch,m_present_secs_into_mission,m_present_time,m_raw_altitude,m_roll,m_speed,m_thruster_power,m_vacuum,m_vehicle_temp,m_veh_temp,m_water_depth,m_water_vx,m_water_vy
0,0.9,430.0,0.0,3.0606797,0.4538,2018.2,12958.76,0.0,0,1,14.890477,0.8591612,3898.204,135.07584,2.5631375,429.90176,1023.0,3663.848,-0.002894842,2134.4584,12945.2767,3.1817353,1,9,2134.4583999657807,2.5,2.4944139,2.4955127,12945.27669999983,0.31241393,155609.66,1740751612.533,110.0,0.2268928,0.5245935,0.0,8.887289,0.0,20.521416,-1.0,0.07166861,0.088767305
1,,,,,,,,,-127,-127,,,,,,,,,,2134.4052,12945.3097,,-127,-127,,,,,,,155670.77,1740751673.667,,,,,,,,,,
2,,,,,,,,,-127,-127,,,,,,,,,,2134.4046,12945.3097,,-127,-127,,,,,,,155674.77,1740751677.675,,,,,,,,,,
3,,,,,,,,,-127,-127,,,,,,,,,,2134.4039000000002,12945.31,,-127,-127,,,,,,,155679.03,1740751681.263,,,,,,,,,,
4,,,,,,,,,-127,-127,,,,,,,,,,2134.4036,12945.310099999999,,-127,-127,,,,,,,155687.03,1740751689.267,,,,,,,,,,
5,,,,,,,,,-127,-127,,,,,,,,,,2134.4032,12945.3112,,-127,-127,,,,,,,155691.03,1740751693.269,,,,,,,,,,
6,,,,,,,,,-127,-127,,,,,,,,,,2134.4031000000004,12945.3131,,-127,-127,,,,,,,155695.03,1740751697.272,,,,,,,,,,
7,,,,,,,,,-127,-127,,,,,,,,,,2134.4027,12945.313,,-127,-127,,,,,,,155699.03,1740751701.274,,,,,,,,,,
8,,,,,,,,,-127,-127,,,,,,,,,,2134.4022,12945.3148,,-127,-127,,,,,,,155703.03,1740751705.278,,,,,,,,,,
9,,,,,,,,,-127,-127,,,,,,,,,,2134.4016,12945.3167,,-127,-127,,,,,,,155711.03,1740751713.282,,,,,,,,,,
10,,,,,,,,,-127,-127,,,,,,,,,,2134.4010000000003,12945.3187,,-127,-127,,,,,,,155715.03,1740751717.29,,,,,,,,,,
11,,,,,,,,,-127,-127,,,,,,,,,,2134.4004,12945.3207,,-127,-127,,,,,,,155719.05,1740751721.293,,,,,,,,,,
12,,,,,,,,,-127,-127,,,,,,,,,,2134.3983000000003,12945.313,,-127,-127,,,,,,,155727.05,1740751729.299,,,,,,,,,,
13,,,,,,,,,-127,-127,,,,,,,,,,2134.3988,12945.3143,,-127,-127,,,,,,,155731.05,1740751733.306,,,,,,,,,,
14,,,,,,,,,-127,-127,,,,,,,,,,2134.3978,12945.3147,,-127,-127,,,,,,,155735.05,1740751737.31,,,,,,,,,,
15,,,,,,,,,-127,-127,,,,,,,,,,2134.3964,12945.315499999999,,-127,-127,,,,,,,155739.05,1740751741.313,,,,,,,,,,
16,,,,,,,,,-127,-127,,,,,,,,,,2134.3952000000004,12945.315999999999,,-127,-127,,,,,,,155743.05,1740751745.316,,,,,,,,,,
17,,,,,,,,,-127,-127,,,,,,,,,,2134.3939000000005,12945.316799999999,,-127,-127,,,,,,,155751.05,1740751753.323,,,,,,,,,,
18,,,,,,,,,-127,-127,,,,,,,,,,2134.3925000000004,12945.3175,,-127,-127,,,,,,,155755.06,1740751757.332,,,,,,,,,,
19,,,,,,,,,-127,-127,,,,,,,,,,2134.3912000000005,12945.318299999999,,-127,-127,,,,,,,155759.06,1740751761.335,,,,,,,,,,
20,,,,,,,,,-127,-127,,,,,,,,,,,,,-127,-127,,,,,,,155763.06,1740751765.339,,0.31939524,,0.0,,,,,,
21,,,,,-0.4538,,,,-127,-127,,,,,,,,,,,,,-127,-127,,,,,,,155767.06,1740751769.341,,,,,,,,,,
22,,,,,,,,,-127,-127,,,,,,,,,,,,,-127,-127,,,,,,,155776.72,1740751779.013,110.0,,,,,,,,,
23,,,,,,,,,0,0,14.881745,,,135.08974,,,1023.0,,,,,,0,99,,,,,,,155808.72,1740751811.031,,,,,6.790903,,21.486496,,,
24,-0.08493678,-380.0,0.45,3.261926,,,,,-127,-127,,-0.030774115,,,27.01244,-369.77264,,,0.4526829,,,1.8535397,-127,-127,2134.3987412360148,,,,12945.346961916208,-0.46774822,155872.78,1740751875.128,,,0.39837405,,,,,,,
25,,,,,,,,,-127,-127,,,,,,,,,,,,,-127,-127,,,,,,,155916.8,1740751919.159,,0.22514747,,,,,,,,
26,,,,,-0.4538,,,,-127,-127,,,,,,,,,,,,,-127,-127,,,,,,,156070.52,1740752072.971,,0.23387411,,,,,,,,
27,,,,,,,,,-127,-127,,,,,,,,,,,,,-127,-127,,,,,,,156078.52,1740752080.98,110.0,,,,,,,,,
28,,,,,,,,,-127,-127,,,,,,,,,,,,,-127,-127,,2.4961233,2.49185,2.4928877,,,156106.53,1740752109.001,,,,,,,,,,
29,,,,,,,,,0,-127,15.146111,,,135.09584,,,1023.0,,,,,,0,-127,,,,,,,156110.53,1740752113.009,,,,,6.764244,,22.111649,,,
30,-0.08493678,-380.0,0.45,3.2576363,,,,,-127,-127,,-0.032225884,,,90.26224,-369.82272,,,0.4515159,,,1.1431906,-127,-127,2134.4317752971338,,,,12945.414685242566,-0.47472957,156174.58,1740752177.093,,,0.41188338,,,,,,,
31,,,,,,,,,-127,-127,,,,,,,,,,,,,-127,-127,,,,,,,156222.64,1740752225.18,,0.24260077,,,,,,,,
32,,,,,-0.4538,,,,-127,-127,,,,,,,,,,,,,-127,-127,,,,,,,156372.5,1740752375.13,,,,,,,,,,
33,,,,,,,,,-127,-127,,,,,,,,,,,,,-127,-127,,,,,,,156376.5,1740752379.137,,0.23387411,,,,,,,,
34,,,,,,,,,-127,-127,,,,,,,,,,,,,-127,-127,,,,,,,156380.5,1740752383.142,110.0,,,,,,,,,
35,,,,,,,,,0,-127,15.191877,,,135.10219,,,1023.0,,,,,,0,-127,,,,,,,156412.55,1740752415.201,,,,,6.746916,,22.22105,,,
36,-0.08493678,-380.0,0.45,3.2540498,,,,,-127,-127,,-0.032225884,,,150.87465,-369.94797,,,0.4515159,,,2.6389377,-127,-127,2134.422072271226,,,,12945.477032191971,-0.4712389,156476.6,1740752479.278,,,0.2975062,,,,,,,
37,,,,,,,,,-127,-127,,,,,,,,,,,,,-127,-127,,,,,,,156528.6,1740752531.314,,0.2443461,,,,,,,,
38,,,,,-0.4538,,,,-127,-127,,,,,,,,,,,,,-127,-127,,,,,,,156674.31,1740752677.11,,,,,,,,,,
39,,,,,,,,,-127,-127,,,,,,,,,,,,,-127,-127,,,,,,,156682.31,1740752685.12,110.0,0.24260077,,,,,,,,
40,,,,,,,,,-127,-127,,,,,,,,,,,,,-127,-127,,2.4960012,2.491972,2.4929793,,,156710.31,1740752713.143,,,,,,,,,,
41,,,,,,,,,0,-127,15.211659,,,135.10854,,,1023.0,,,,,,0,-127,,,,,,,156714.33,1740752717.15,,,,,6.759912,,22.10774,,,
42,-0.08493678,-380.0,0.37628922,3.2517593,,,,,-127,-127,,-0.032225884,,,205.52324,-370.14835,,,0.3628216,,,3.1031954,-127,-127,2134.3887718300266,,,,12945.507350207949,-0.45553094,156778.36,1740752781.23,,,0.28207287,,,,,,,
43,,,,,,,,,-127,-127,,,,,,,,,,,,,-127,-127,,,,,,,156834.42,1740752837.32,,0.24958208,,,,,,,,
44,,,,,-0.4538,,,,-127,-127,,,,,,,,,,,,,-127,-127,,,,,,,156976.22,1740752979.192,,,,,,,,,,
45,,,,,,,,,-127,-127,,,,,,,,,,,,,-127,-127,,,,,,,156984.22,1740752987.201,110.0,,,,,,,,,
46,,,,,,,,,-127,-127,,,,,,,,,,,,,-127,-127,,,,,,,156988.27,1740752991.244,,0.2443461,,,,,,,,
47,,,,,,,,,0,-127,15.221225,,,135.11586,,,1023.0,,,,,,0,-127,,,,,,,157016.27,1740753019.26,,,,,6.848886,,21.427887,,,
48,-0.08493678,-380.0,0.3212593,3.2503958,,,,,-127,-127,,-0.032225884,,,255.99002,-370.3487,,,0.2927998,,,2.7000244,-127,-127,2134.357789317808,,,,12945.541306821202,-0.4223697,157080.3,1740753083.342,,,0.30790186,,,,,,,
49,,,,,,,,,-127,-127,,,,,,,,,,,,,-127,-127,,,,,,,157140.3,1740753143.377,,0.2443461,,,,,,,,
50,,,,,-0.4538,,,,-127,-127,,,,,,,,,,,,,-127,-127,,,,,,,157278.19,1740753281.345,,,,,,,,,,
51,,,,,,,,,-127,-127,,,,,,,,,,,,,-127,-127,,,,,,,157286.2,1740753289.354,110.0,,,,,,,,,
52,,,,,,,,,-127,-127,,,,,,,,,,,,,-127,-127,,,,,,,157294.2,1740753297.365,,0.24783675,,,,,,,,
53,,,,,,,,,-127,-127,,,,,,,,,,,,,-127,-127,,2.4959402,2.491636,2.4926128,,,157314.2,1740753317.381,,,,,,,,,,
54,,,,,,,,,0,-127,15.225336,,,135.12221,,,1023.0,,,,,,0,-127,,,,,,,157318.22,1740753321.389,,,,,6.901204,,20.466715,,,
55,-0.08493678,-380.0,0.3855243,3.2490551,,,,,-127,-127,,-0.032225884,,,306.36176,-370.499,,,0.4095028,,,2.7227137,-127,-127,2134.33315872564,,,,12945.588577922654,-0.43633232,157382.25,1740753385.464,,,0.3894955,,,,,,,
56,,,,,,,,,-127,-127,,,,,,,,,,,,,-127,-127,,,,,,,157446.3,1740753449.547,,0.24609143,,,,,,,,
57,,,,,-0.4538,,,,-127,-127,,,,,,,,,,,,,-127,-127,,,,,,,157579.95,1740753583.287,,,,,,,,,,
58,,,,,,,,,-127,-127,,,,,,,,,,,,,-127,-127,,,,,,,157587.97,1740753591.296,110.0,,,,,,,,,
59,,,,,,,,,-127,-127,,,,,,,,,,,,,-127,-127,,,,,,,157600.2,1740753603.535,,0.24958208,,,,,,,,
60,,,,,,,,,0,-127,15.225,,,135.12831,,,1023.0,,,,,,0,-127,,,,,,,157620.2,1740753623.547,,,,,6.9571877,,19.50945,,,
61,-0.08493678,-380.0,0.45,3.248786,,,,,-127,-127,,-0.033677656,,,352.38538,-370.59918,,,0.4573511,,,2.4626596,-127,-127,2134.308101634467,,,,12945.630778659617,-0.40840703,157684.23,1740753687.625,,,0.36858392,,,,,,,
62,,,,,,,,,-127,-127,,,,,,,,,,,,,-127,-127,,,,,,,157752.23,1740753755.666,,0.24783675,,,,,,,,
63,,,,,-0.4538,,,,-127,-127,,,,,,,,,,,,,-127,-127,,,,,,,157881.94,1740753885.444,,,,,,,,,,
64,,,,,,,,,-127,-127,,,,,,,,,,,,,-127,-127,,,,,,,157889.95,1740753893.455,110.0,,,,,,,,,
65,,,,,,,,,-127,-127,,,,,,,,,,,,,-127,-127,,,,,,,157905.95,1740753909.469,,0.24609143,,,,,,,,
66,,,,,,,,,-127,-127,,,,,,,,,,,,,-127,-127,,2.4974053,2.4912088,2.4925213,,,157917.95,1740753921.482,,,,,,,,,,
67,,,,,,,,,0,-127,15.214666,,,135.13588,,,1023.0,,,,,,0,-127,,,,,,,157921.97,1740753925.49,,,,,6.9991755,,18.606886,,,
68,-0.08493678,-380.0,0.4089892,3.2495058,,,,,-127,-127,,-0.032225884,,,394.91623,-370.79953,,,0.4585181,,,2.6738443,-127,-127,2134.2943694856867,,,,12945.680341706073,-0.40840703,157986.02,1740753989.57,,,0.25787237,,,,,,,
69,,,,,,,,,-127,-127,,,,,,,,,,,,,-127,-127,,,,,,,158058.05,1740754061.653,,0.24609143,,,,,,,,
70,,,,,-0.4538,,,,-127,-127,,,,,,,,,,,,,-127,-127,,,,,,,158182.11,1740754185.788,,,,,,,,,,
71,,,,,,,,,-127,-127,,,,,,,,,,,,,-127,-127,,,,,,,158210.16,1740754213.844,,0.24783675,,,,,,,,
72,,,,,,,,,0,-127,15.225506,,,135.14223,,,1023.0,,,,,,0,-127,,,,,,,158222.16,1740754225.856,,,,,7.0741534,,17.727766,,,
73,,,,,,,,,-127,-127,,,,,,,,,,,,,-127,-127,,,,,,,158259.06,1740754262.788,110.0,,,,,,,,,
74,-0.052290488,-380.0,0.45,3.2500558,,,,,-127,-127,,-0.032225884,,,437.162,-370.69934,,,0.4526829,,,2.4312437,-127,-127,2134.2722393687613,,,,12945.721832526307,-0.40317106,158287.08,1740754290.809,,,0.3347591,,,,,,,
75,,,,,,,,,-127,-127,,,,,,,,,,,,,-127,-127,,,,,,,158363.12,1740754366.899,,0.24958208,,,,,,,,
76,,,,,-0.4538,,,,-127,-127,,,,,,,,,,,,,-127,-127,,,,,,,158483.22,1740754487.067,,,,,,,,,,
77,,,,,,,,,-127,-127,,,,,,,,,,,,,-127,-127,,,,,,,158515.22,1740754519.09,,0.24260077,,,,,,,,
78,,,,,,,,,-127,-127,,,,,,,,,,,,,-127,-127,,2.4954822,2.4910562,2.492216,,,158519.23,1740754523.097,,,,,,,,,,
79,,,,,,,,,0,-127,15.214552,,,135.14833,,,1023.0,,,,,,0,-127,,,,,,,158531.23,1740754535.107,,,,,7.120806,,16.653284,,,
80,,,,,,,,,-127,-127,,,,,,,,,,,,,-127,-127,,,,,,,158559.28,1740754563.166,110.0,,,,,,,,,
81,0.08204715,-380.0,0.45,3.250351,,,,,-127,-127,,0.110047616,,,481.64117,-370.84964,,,0.4480148,,,2.5150194,-127,-127,2134.250938772701,,,,12945.765528048994,-0.4660029,158587.28,1740754591.182,,,0.25228044,,,,,,,
82,,,,,,,,,-127,-127,,,,,,,,,,,,,-127,-127,,,,,,,158668.94,1740754672.891,,0.24783675,,,,,,,,
83,,,,,-0.4538,,,,-127,-127,,,,,,,,,,,,,-127,-127,,,,,,,158785.0,1740754789.016,,,,,,,,,,
84,,,,,,,,,-127,-127,,,,,,,,,,,,,-127,-127,,,,,,,158821.0,1740754825.041,,0.24958208,,,,,,,,
85,,,,,,,,,0,-127,15.21603,,,135.1559,,,1023.0,,,,,,0,-127,,,,,,,158833.05,1740754837.094,,,,,7.191119,,15.676483,,,
86,,,,,,,,,-127,-127,,,,,,,,,,,,,-127,-127,,,,,,,158861.05,1740754865.115,110.0,,,,,,,,,
87,0.08204715,-380.0,0.45,3.2517476,,,,,-127,-127,,0.110047616,,,525.59766,-370.44888,,,0.4515159,,,2.5254915,-127,-127,2134.232913098478,,,,12945.806339692397,-0.47822022,158889.06,1740754893.137,,,0.23687772,,,,,,,
88,,,,,,,,,-127,-127,,,,,,,,,,,,,-127,-127,,,,,,,158973.1,1740754977.228,,0.24958208,,,,,,,,
89,,,,,-0.4538,,,,-127,-127,,,,,,,,,,,,,-127,-127,,,,,,,159086.8,1740755090.995,,,,,,,,,,
90,,,,,,,,,-127,-127,,,,,,,,,,,,,-127,-127,,2.4951465,2.4910562,2.4917583,,,159122.8,1740755127.015,,,,,,,,,,
91,,,,,,,,,-127,-127,,,,,,,,,,,,,-127,-127,,,,,,,159126.8,1740755131.023,,0.24958208,,,,,,,,
92,,,,,,,,,0,-127,15.209336,,,135.16225,,,1023.0,,,,,,0,-127,,,,,,,159134.81,1740755139.028,,,,,7.2397714,,14.7621975,,,
93,,,,,,,,,-127,-127,,,,,,,,,,,,,-127,-127,,,,,,,159162.81,1740755167.05,110.0,,,,,,,,,
94,0.08204715,-380.0,0.30152386,3.2531803,,,,,-127,-127,,0.110047616,,,568.41364,-369.77264,,,0.3091382,,,2.8082347,-127,-127,2134.2106305854363,,,,12945.838254930559,-0.4537856,159190.86,1740755195.11,,,0.24813189,,,,,,,
95,,,,,,,,,-127,-127,,,,,,,,,,,,,-127,-127,,,,,,,159278.89,1740755283.202,,0.25307274,,,,,,,,
96,,,,,-0.4538,,,,-127,-127,,,,,,,,,,,,,-127,-127,,,,,,,159388.58,1740755392.943,,,,,,,,,,
97,,,,,,,,,-127,-127,,,,,,,,,,,,,-127,-127,,,,,,,159432.61,1740755437.009,,0.25307274,,,,,,,,
98,,,,,,,,,0,-127,15.199598,,,135.16957,,,1023.0,,,,,,0,-127,,,,,,,159436.61,1740755441.011,,,,,7.294089,,13.765861,,,
99,,,,,,,,,-127,-127,,,,,,,,,,,,,-127,-127,,,,,,,159464.61,1740755469.028,110.0,,,,,,,,,
100,0.08204715,-380.0,0.41434863,3.2545476,,,,,-127,-127,,0.110047616,,,610.8732,-369.0463,,,0.4363445,,,2.661627,-127,-127,2134.189587768644,,,,12945.873605009596,-0.45029494,159492.62,1740755497.049,,,0.268592,,,,,,,
101,,,,,,,,,-127,-127,,,,,,,,,,,,,-127,-127,,,,,,,159584.67,1740755589.149,,0.24958208,,,,,,,,
102,,,,,-0.4538,,,,-127,-127,,,,,,,,,,,,,-127,-127,,,,,,,159688.7,1740755693.251,,,,,,,,,,
103,,,,,,,,,-127,-127,,,,,,,,,,,,,-127,-127,,2.4948108,2.490415,2.491453,,,159724.77,1740755729.334,,,,,,,,,,
104,,,,,,,,,0,-127,15.193243,,,135.17714,,,1023.0,,,,,,0,-127,,,,,,,159736.78,1740755741.347,,0.24958208,,,7.365068,,12.8437605,,,
105,,,,,,,,,-127,-127,,,,,,,,,,,,,-127,-127,,,,,,,159766.39,1740755770.984,110.0,,,,,,,,,
106,0.08204715,-380.0,0.45,3.2561977,,,,,-127,-127,,0.110047616,,,651.6221,-368.3951,,,0.4503489,,,2.5638888,-127,-127,2134.1695459660996,,,,12945.90774986753,-0.44854963,159794.44,1740755799.042,,,0.2509945,,,,,,,
107,,,,,,,,,-127,-127,,,,,,,,,,,,,-127,-127,,,,,,,159890.48,1740755895.145,,0.24958208,,,,,,,,
108,,,,,-0.4538,,,,-127,-127,,,,,,,,,,,,,-127,-127,,,,,,,159990.55,1740755995.26,,,,,,,,,,
109,,,,,,,,,0,-127,15.18877,,,135.18349,,,1023.0,,,,,,0,-127,,,,,,,160038.6,1740756043.333,,,,,7.4083886,,11.929475,,,
110,,,,,,,,,-127,-127,,,,,,,,,,,,,-127,-127,,,,,,,160042.6,1740756047.335,,0.24783675,,,,,,,,
111,0.08204715,-380.0,0.45,3.2575123,,,,,-127,-127,,0.11149939,,,692.8223,-367.76895,,,0.455017,,,2.4155357,-127,-127,2134.1493237071168,,,,12945.943450313194,-0.44331363,160094.6,1740756099.366,,,0.30506325,,,,,,,
112,,,,,,,,,-127,-127,,,,,,,,,,,,,-127,-127,,,,,,,160128.25,1740756133.041,110.0,,,,,,,,,
113,,,,,,,,,-127,-127,,,,,,,,,,,,,-127,-127,,,,,,,160196.25,1740756201.081,,0.25307274,,,,,,,,
114,,,,,-0.4538,,,,-127,-127,,,,,,,,,,,,,-127,-127,,,,,,,160292.3,1740756297.186,,,,,,,,,,
115,,,,,,,,,-127,-127,,,,,,,,,,,,,-127,-127,,2.494597,2.49011,2.491392,,,160328.36,1740756333.265,,,,,,,,,,
116,,,,,,,,,0,-127,15.179077,,,135.19081,,,1023.0,,,,,,0,-127,,,,,,,160340.36,1740756345.277,,,,,7.4617066,,11.108962,,,
117,,,,,,,,,-127,-127,,,,,,,,,,,,,-127,-127,,,,,,,160348.36,1740756353.287,,0.2565634,,,,,,,,
118,0.08204715,-380.0,0.45,3.258666,,,,,-127,-127,,0.11149939,,,734.30774,-367.06766,,,0.4340105,,,2.258456,-127,-127,2134.1356183074413,,,,12945.98795403256,-0.43284166,160396.4,1740756401.361,,,0.19263777,,,,,,,
119,,,,,,,,,-127,-127,,,,,,,,,,,,,-127,-127,,,,,,,160428.42,1740756433.384,110.0,,,,,,,,,
120,,,,,,,,,-127,-127,,,,,,,,,,,,,-127,-127,,,,,,,160500.45,1740756505.467,,0.24783675,,,,,,,,
121,,,,,-0.4538,,,,-127,-127,,,,,,,,,,,,,-127,-127,,,,,,,160594.31,1740756599.372,,,,,,,,,,
122,,,,,,,,,0,-127,15.168678,,,135.19838,,,1023.0,,,,,,0,-127,,,,,,,160642.31,1740756647.405,,,,,7.4930305,,10.397851,,,
123,,,,,,,,,-127,-127,,,,,,,,,,,,,-127,-127,,,,,,,160654.34,1740756659.449,,0.24958208,,,,,,,,
124,0.08204715,-380.0,0.45,3.260161,,,,,-127,-127,,0.11149939,,,774.5101,-366.41644,,,0.4328434,,,1.7749999,-127,-127,2134.130337585417,,,,12946.037849393215,-0.43633232,160698.34,1740756703.474,,,0.22745617,,,,,,,
125,,,,,,,,,-127,-127,,,,,,,,,,,,,-127,-127,,,,,,,160730.36,1740756735.499,110.0,,,,,,,,,
126,,,,,,,,,-127,-127,,,,,,,,,,,,,-127,-127,,,,,,,160806.39,1740756811.584,,0.24958208,,,,,,,,
127,,,,,-0.4538,,,,-127,-127,,,,,,,,,,,,,-127,-127,,,,,,,160894.44,1740756899.672,,,,,,,,,,
128,,,,,,,,,-127,-127,,,,,,,,,,,,,-127,-127,,2.4943833,2.4899879,2.4909647,,,160932.11,1740756937.365,,,,,,,,,,
129,,,,,,,,,0,-127,15.140389,,,135.20595,,,1023.0,,,,,,0,-127,,,,,,,160944.11,1740756949.378,,,,,7.534685,,9.717998,,,
130,,,,,,,,,-127,-127,,,,,,,,,,,,,-127,-127,,,,,,,160960.12,1740756965.394,,0.25307274,,,,,,,,
131,0.08204715,-380.0,0.45,3.2625244,,,,,-127,-127,,0.11149939,,,811.386,-365.7903,,,0.4328434,,,1.5952309,-127,-127,2134.1507570482418,,,,12946.089809414294,-0.43458697,161000.12,1740757005.422,,,0.25065917,,,,,,,
132,,,,,,,,,-127,-127,,,,,,,,,,,,,-127,-127,,,,,,,161032.16,1740757037.475,110.0,,,,,,,,,
133,,,,,,,,,-127,-127,,,,,,,,,,,,,-127,-127,,,,,,,161112.2,1740757117.563,,0.24958208,,,,,,,,
134,,,,,-0.4538,,,,-127,-127,,,,,,,,,,,,,-127,-127,,,,,,,161196.23,1740757201.649,,,,,,,,,,
135,,,,,,,,,0,-127,15.151657,,,135.21205,,,1023.0,,,,,,0,-127,,,,,,,161244.25,1740757249.682,,,,,7.5596776,,9.139731,,,
136,,,,,,,,,-127,-127,,,,,,,,,,,,,-127,-127,,,,,,,161264.25,1740757269.7,,0.25132743,,,,,,,,
137,0.08204715,-380.0,0.45,3.2649283,,,,,-127,-127,,0.11295116,,,847.1927,-365.26434,,,0.4328434,,,1.1309733,-127,-127,2134.1811128760037,,,,12946.137773128978,-0.429351,161300.31,1740757305.777,,,0.31087017,,,,,,,
138,,,,,,,,,-127,-127,,,,,,,,,,,,,-127,-127,,,,,,,161361.95,1740757367.456,110.0,,,,,,,,,
139,,,,,,,,,-127,-127,,,,,,,,,,,,,-127,-127,,,,,,,161417.95,1740757423.488,,0.25132743,,,,,,,,
140,,,,,-0.4538,,,,-127,-127,,,,,,,,,,,,,-127,-127,,,,,,,161497.98,1740757503.576,,,,,,,,,,
141,,,,,,,,,-127,-127,,,,,,,,,,,,,-127,-127,,2.4943833,2.4899573,2.4908426,,,161534.0,1740757539.601,,,,,,,,,,
142,,,,,,,,,0,-127,15.140996,,,135.21962,,,1023.0,,,,,,0,-127,,,,,,,161546.03,1740757551.646,,,,,7.592668,,8.643517,,,
143,,,,,,,,,-127,-127,,,,,,,,,,,,,-127,-127,,,,,,,161570.03,1740757575.666,,0.25132743,,,,,,,,
144,0.08204715,-380.0,0.45,3.2668242,,,,,-127,-127,,0.11295116,,,883.8548,-364.71332,,,0.4328434,,,0.56897736,-127,-127,2134.224096577572,,,,12946.177280352736,-0.42760566,161602.05,1740757607.689,,,0.23077579,,,,,,,
145,,,,,,,,,-127,-127,,,,,,,,,,,,,-127,-127,,,,,,,161662.11,1740757667.784,110.0,,,,,,,,,
146,,,,,,,,,-127,-127,,,,,,,,,,,,,-127,-127,,,,,,,161722.14,1740757727.856,,0.25481808,,,,,,,,
147,,,,,-0.4538,,,,-127,-127,,,,,,,,,,,,,-127,-127,,,,,,,161799.77,1740757805.52,,,,,,,,,,
148,,,,,,,,,0,-127,15.12159,,,135.22719,,,1023.0,,,,,,0,-127,,,,,,,161847.8,1740757853.59,,,,,7.6103296,,8.155116,,,
149,,,,,,,,,-127,-127,,,,,,,,,,,,,-127,-127,,,,,,,161875.81,1740757881.613,,0.25307274,,,,,,,,
150,0.08204715,-380.0,0.45,3.2679975,,,,,-127,-127,,0.11295116,,,922.2751,-364.1122,,,0.4328434,,,0.37873644,-127,-127,2134.2760055086965,,,,12946.208042283146,-0.42760566,161903.84,1740757909.667,,,0.24393289,,,,,,,
151,,,,,,,,,-127,-127,,,,,,,,,,,,,-127,-127,,,,,,,161963.86,1740757969.708,110.0,,,,,,,,,
152,,,,,,,,,-127,-127,,,,,,,,,,,,,-127,-127,,,,,,,162028.1,1740758033.979,,0.25481808,,,,,,,,
153,,,,,-0.4538,,,,-127,-127,,,,,,,,,,,,,-127,-127,,,,,,,162100.12,1740758106.059,,,,,,,,,,
154,,,,,,,,,-127,-127,,,,,,,,,,,,,-127,-127,,2.4943528,2.4896824,2.4908426,,,162136.12,1740758142.084,,,,,,,,,,
155,,,,,,,,,0,-127,15.120876,,,135.23477,,,1023.0,,,,,,0,-127,,,,,,,162148.14,1740758154.097,,,,,7.6256585,,7.7643957,,,
156,,,,,,,,,-127,-127,,,,,,,,,,,,,-127,-127,,,,,,,162181.78,1740758187.76,,0.25132743,,,,,,,,
157,0.25401,-380.0,0.37100053,3.268871,,,,,-127,-127,,0.24651404,,,962.97644,-363.68643,,,0.3663227,,,2.7157323,-127,-127,2134.288225407327,,,,12946.212535611035,-0.47822022,162205.78,1740758211.781,,,0.30215338,,,,,,,
158,,,,,,,,,-127,-127,,,,,,,,,,,,,-127,-127,,,,,,,162265.84,1740758271.871,110.0,,,,,,,,,
159,,,,,,,,,-127,-127,,,,,,,,,,,,,-127,-127,,,,,,,162333.89,1740758339.952,,0.25481808,,,,,,,,
160,,,,,-0.4538,,,,-127,-127,,,,,,,,,,,,,-127,-127,,,,,,,162401.89,1740758407.992,,,,,,,,,,
161,,,,,,,,,0,-127,15.103284,,,135.24208,,,1023.0,,,,,,0,-127,,,,,,,162449.92,1740758456.058,,,,,7.6529837,,7.3736753,,,
162,,,,,,,,,-127,-127,,,,,,,,,,,,,-127,-127,,,,,,,162485.95,1740758492.11,,0.25132743,,,,,,,,
163,-0.33,220.0,0.26552644,3.270372,,,,,-127,-127,,-0.32403174,,,1002.70355,-227.00943,,,0.262457,,,2.8658307,-127,-127,2134.270147853587,,,,12946.244156820107,0.0017453292,162506.0,1740758512.164,,,0.0,,,,,,,
164,,,,,,,,,-127,-127,,,,,,,,,,,,,-127,-127,,,,,,,162636.62,1740758642.865,,0.18849556,,,,,,,,
165,,,,,-0.4538,,,,-127,-127,,,,,,,,,,,,,-127,-127,,,,,,,162704.67,1740758710.948,,,,,,,,,,
166,,,,,,,,,-127,-127,,,,,,,,,,,,,-127,-127,,2.4949024,2.490354,2.4911172,,,162736.67,1740758742.971,,,,,,,,,,
167,,,,,,,,,0,-127,14.651585,,,135.48721,,,1023.0,,,,,,0,-127,,,,,,,162752.67,1740758758.986,,,,,7.9775553,,7.256459,,,
168,,,,,,,,,-127,-127,,,,,,,,,,,,,-127,-127,,,,,,,162788.72,1740758795.041,,0.23736478,,,,,,,,
169,-0.33,220.0,-0.21699117,3.2699206,,,,,-127,-127,,-0.32257998,,,910.0623,220.4656,,,-0.2344822,,,3.4016466,-127,-127,2134.2456240793076,,,,12946.23911394119,0.8656833,162808.72,1740758815.058,,,0.37606922,,,,,,,
170,,,,,,,,,-127,-127,,,,,,,,,,,,,-127,-127,,,,,,,162940.81,1740758947.226,,0.28274333,,,,,,,,
171,,,,,,,,,0,-127,14.899917,,,135.50331,,,1023.0,,,,,,0,-127,,,,,,,163052.84,1740759059.333,,,,,8.013545,,7.080635,,,
172,,,,,,,,,-127,-127,,,,,,,,,,,,,-127,-127,,,,,,,163092.86,1740759099.361,,0.25481808,,,,,,,,
173,-0.33,220.0,-0.14012665,3.266819,,,,,-127,-127,,-0.32257998,,,789.978,220.66599,,,-0.1331627,,,3.223623,-127,-127,2134.207237154494,,,,12946.24468457022,0.8517207,163108.89,1740759115.409,,,0.33175156,,,,,,,
174,,,,,,,,,-127,-127,,,,,,,,,,,,,-127,-127,,,,,,,163244.94,1740759251.525,,0.30892327,,,,,,,,
175,,,,,,,,,-127,-127,,,,,,,,,,,,,-127,-127,,2.4942002,2.4898353,2.4904761,,,163336.98,1740759343.631,,,,,,,,,,
176,,,,,,,,,0,-127,14.938733,,,135.51967,,,1023.0,,,,,,0,-127,,,,,,,163353.0,1740759359.647,,,,,8.022876,,6.982955,,,
177,,,,,,,,,-127,-127,,,,,,,,,,,,,-127,-127,,,,,,,163397.03,1740759403.714,,0.27925268,,,,,,,,
178,-0.33,220.0,-0.3677195,3.2646852,,,,,-127,-127,,-0.32257998,,,678.25726,220.94148,,,-0.3919973,,,3.3178709,-127,-127,2134.1713287919374,,,,12946.251360880664,0.86044735,163409.05,1740759415.726,,,0.27671623,,,,,,,
179,,,,,,,,,-127,-127,,,,,,,,,,,,,-127,-127,,,,,,,163549.11,1740759555.881,,0.30717796,,,,,,,,
180,,,,,,,,,0,-127,14.943002,,,135.53604,,,1023.0,,,,,,0,-127,,,,,,,163653.17,1740759659.997,,,,,8.002548,,7.0923567,,,
181,,,,,,,,,-127,-127,,,,,,,,,,,,,-127,-127,,,,,,,163701.17,1740759708.031,,0.27227136,,,,,,,,
182,-0.33,220.0,-0.100994304,3.2634666,,,,,-127,-127,,-0.32257998,,,573.78345,221.1168,,,-0.08395043,,,3.234095,-127,-127,2134.1379777465227,,,,12946.260318176435,0.82030475,163709.22,1740759716.074,,,0.29373962,,,,,,,
183,,,,,,,,,-127,-127,,,,,,,,,,,,,-127,-127,,,,,,,163853.25,1740759860.19,,0.2617994,,,,,,,,
184,,,,,,,,,-127,-127,,,,,,,,,,,,,-127,-127,,2.5,2.4997864,2.5,,,163937.3,1740759944.282,,,,,,,,,,
185,,,,,,,,,0,-127,14.937658,,,135.55215,,,1023.0,,,,,,0,-127,,,,,,,163953.3,1740759960.297,,,,,7.9555616,,7.5690355,,,
186,,,,,,,,,-127,-127,,,,,,,,,,,,,-127,-127,,,,,,,164005.34,1740760012.379,,0.26529005,,,,,,,,
187,-0.33,220.0,-0.20108904,3.261945,,,,,-127,-127,,-0.32257998,,,469.76105,221.46745,,,-0.220008,,,3.5639622,-127,-127,2134.1051348566884,,,,12946.261963167335,0.8220501,164009.36,1740760016.386,,,0.29216322,,,,,,,
188,,,,,,,,,-127,-127,,,,,,,,,,,,,-127,-127,,,,,,,164157.42,1740760164.543,,0.29496065,,,,,,,,
189,,,,,,,,,0,-127,14.938155,,,135.56729,,,1023.0,,,,,,0,-127,,,,,,,164253.66,1740760260.834,,,,,7.890914,,8.448156,,,
190,-0.33,220.0,-0.25885534,3.2607207,,,,,-127,-127,,-0.32257998,,,370.08676,221.56764,,,-0.2547461,,,3.6459928,-127,-127,2134.073531750981,,,,12946.258562612169,0.79063416,164309.7,1740760316.905,,0.27227136,0.27351993,,,,,,,
191,,,,,,,,,-127,-127,,,,,,,,,,,,,-127,-127,,,,,,,164461.73,1740760469.03,,0.28797933,,,,,,,,
192,,,,,,,,,-127,-127,,,,,,,,,,,,,-127,-127,,2.4942613,2.490232,2.4910562,,,164537.78,1740760545.113,,,,,,,,,,
193,,,,,,,,,0,-127,14.937714,,,135.5834,,,1023.0,,,,,,0,-127,,,,,,,164553.78,1740760561.127,,,,,7.7676167,,9.698462,,,
194,-0.33,220.0,-0.45,3.2606685,,,,,-127,-127,,-0.32257998,,,281.03333,221.56764,,,-0.4398456,,,3.6826446,-127,-127,2134.046663568448,,,,12946.254013867207,0.80110615,164609.84,1740760617.219,,,0.2862976,,,,,,,
195,,,,,,,,,-127,-127,,,,,,,,,,,,,-127,-127,,,,,,,164613.84,1740760621.227,,0.286234,,,,,,,,
196,,,,,,,,,-127,-127,,,,,,,,,,,,,-127,-127,,,,,,,164765.92,1740760773.389,,0.28274333,,,,,,,,
197,,,,,,,,,0,-127,14.945042,,,135.59854,,,1023.0,,,,,,0,-127,,,,,,,164853.95,1740760861.479,,,,,7.682975,,11.183199,,,
198,-0.33,220.0,-0.32569352,3.2610862,,,,,-127,-127,,-0.32112822,,,197.72987,221.69287,,,-0.2881316,,,3.8205256,-127,-127,2134.0216090629933,,,,12946.252286246287,0.7574729,164910.02,1740760917.571,,,0.18225744,,,,,,,
199,,,,,,,,,-127,-127,,,,,,,,,,,,,-127,-127,,,,,,,164918.02,1740760925.576,,0.286234,,,,,,,,
200,,,,,,,,,-127,-127,,,,,,,,,,,,,-127,-127,,,,,,,165070.06,1740761077.699,,0.3228859,,,,,,,,
201,,,,,,,,,-127,-127,,,,,,,,,,,,,-127,-127,,2.494933,2.490415,2.491453,,,165138.1,1740761145.78,,,,,,,,,,
202,,,,,,,,,0,-127,14.953334,,,135.61464,,,1023.0,,,,,,0,-127,,,,,,,165154.11,1740761161.794,,,,,7.5196896,,12.8632965,,,
203,-0.33,220.0,-0.20694537,3.2632322,,,,,-127,-127,,-0.32257998,,,129.49042,221.66783,,,-0.220008,,,3.5499997,-127,-127,2134.007123584381,,,,12946.243876921237,0.7452556,165210.14,1740761217.866,,,0.28047043,,,,,,,
204,,,,,,,,,-127,-127,,,,,,,,,,,,,-127,-127,,,,,,,165222.14,1740761229.877,,0.27227136,,,,,,,,
205,,,,,,,,,-127,-127,,,,,,,,,,,,,-127,-127,,,,,,,165374.23,1740761382.059,,0.2617994,,,,,,,,
206,,,,,,,,,0,-127,14.967279,,,135.62978,,,1023.0,,,,,,0,-127,,,,,,,165454.28,1740761462.149,,,,,7.4317155,,14.777826,,,
207,-0.33,220.0,-0.2754555,3.2660248,,,,,-127,-127,,-0.32257998,,,68.188965,221.8181,,,-0.2752943,,,3.1520646,-127,-127,2133.989234831151,,,,12946.247709169063,0.7452556,165510.3,1740761518.187,,,0.18062764,,,,,,,
208,,,,,,,,,-127,-127,,,,,,,,,,,,,-127,-127,,,,,,,165526.33,1740761534.235,,0.27052602,,,,,,,,
209,,,,,,,,,-127,-127,,,,,,,,,,,,,-127,-127,,,,,,,165678.39,1740761686.382,,0.2687807,,,,,,,,
210,,,,,,,,,-127,-127,,,,,,,,,,,,,-127,-127,,2.4954517,2.4909341,2.4919415,,,165738.42,1740761746.451,,,,,,,,,,
211,,,,,,,,,0,-127,14.980621,,,135.64468,,,1023.0,,,,,,0,-127,,,,,,,165754.42,1740761762.465,,,,,7.3753986,,16.262564,,,
212,-0.33,220.0,-0.45,3.269206,,,,,-127,-127,,-0.32257998,,,11.592034,221.99342,,,-0.4351775,,,4.0090213,-127,-127,2133.974294069765,,,,12946.249907648202,0.7452556,165810.47,1740761818.541,,,0.1965284,,,,,,,
213,,,,,,,,,-127,-127,,,,,,,,,,,,,-127,-127,,,,,,,165830.47,1740761838.558,,0.26703537,,,,,,,,
214,,,,,0.4538,,,,-127,-127,,,,,,,,,,,,,-127,-127,,,,,,,165858.53,1740761866.629,,,,,,,,,,
215,,,,,,,,,-127,0,,,,,,,,,,,,,-127,-127,,,,,,,165875.17,1740761883.272,,,,,,,,,,
216,,,,,,,,,-127,-127,,,,,,,,,,2133.7411,12946.269400000001,,-127,-127,,,,,,,165923.33,1740761931.47,,,,,,,,,,
217,,,,,,,,,-127,-127,,,,,,,,,,2133.7399,12946.2682,,-127,-127,,,,,,,165927.34,1740761935.479,,,,,,,,,,
218,,,,,,,,,-127,-127,,,,,,,,,,2133.7387999999996,12946.2675,,-127,-127,,,,,,,165935.34,1740761943.485,,,,,,,,,,
219,,,,,,,,,-127,-127,,,,,,,,,,2133.7375,12946.266599999999,,-127,-127,,,,,,,165939.34,1740761947.493,,,,,,,,,,
220,,,,,,,,,-127,-127,,,,,,,,,,2133.7363,12946.2653,,-127,-127,,,,,,,165943.34,1740761951.497,,,,,,,,,,
221,,,,,,,,,-127,-127,,,,,,,,,,2133.7354,12946.2643,,-127,-127,,,,,,,165947.34,1740761955.5,,,,,,,,,,
222,,,,,,,,,-127,-127,,,,,,,,,,2133.7343,12946.2633,,-127,-127,,,,,,,165955.36,1740761963.505,,,,,,,,,,
223,,,,,,,,,-127,-127,,,,,,,,,,2133.7335000000003,12946.2619,,-127,-127,,,,,,,165959.36,1740761967.514,,,,,,,,,,
224,,,,,,,,,-127,-127,,,,,,,,,,2133.7322,12946.2611,,-127,-127,,,,,,,165963.36,1740761971.518,,,,,,,,,,
225,,,,,,,,,-127,-127,,,,,,,,,,2133.7305,12946.2613,,-127,-127,,,,,,,165967.42,1740761975.575,,,,,,,,,,
226,,,,,,,,,-127,-127,,,,,,,,,,2133.7293999999997,12946.2602,,-127,-127,,,,,,,165975.42,1740761983.58,,,,,,,,,,
227,,,,,,,,,-127,-127,,,,,,,,,,2133.7284999999997,12946.2596,,-127,-127,,,,,,,165979.42,1740761987.585,,,,,,,,,,
228,,,,,,,,,-127,-127,,,,,,,,,,2133.7279,12946.2594,,-127,-127,,,,,,,165983.42,1740761991.588,,,,,,,,,,
229,,,,,,,,,-127,-127,,,,,,,,,,2133.7264999999998,12946.2582,,-127,-127,,,,,,,165987.42,1740761995.593,,,,,,,,,,
230,,,,,,,,,-127,-127,,,,,,,,,,,,,-127,10,,,,,,,165995.42,1740762003.597,,,,,,,,,,
231,,,,,,,,,1,-127,14.879884,,,135.68837,,,1023.0,,,,,,1,-127,,,,,,,166051.44,1740762059.641,,,,,8.470744,,17.614456,,,
