m_battpos,m_de_oil_vol,m_depth,m_fin,m_gps_lat,m_gps_lon,m_heading,m_lat,m_lon,m_pitch,m_present_time,m_roll,sci_m_present_time
0.923039078712,432.331237793,0,-0.00289484206587,3305.7966,-11746.4556,2.96182370186,3305.79660004,-11746.4556,0.64228117466,1774571917.1,-0.0139626339078,1774571919.49
0.923039078712,432.256103516,1.02973604202,0.0723710507154,,,,,,,1774571917.1,,1774571923.49
0.924490869045,432.180969238,,-0.00289484206587,,,,,,,1774571924.11,,1774571927.49
0.924490869045,432.180969238,,0,,,,,,,1774571928.11,,1774571931.5
0.924490869045,432.130859375,,-0.0434226281941,,,,,,,1774571932.12,,1774571935.5
0.923039078712,432.231048584,,0,,,,,,,1774571936.12,,1774571939.5
0.923039078712,432.205993652,,-0.0492123104632,,,,,,,1774571940.12,,1774571943.5
0.924490869045,432.180969238,,0.0318432599306,,,,,,,1774571944.13,,1774571947.5
0.923039078712,432.306182861,,-0.0636865198612,,,,,,,1774571948.13,,1774571951.51
0.923039078712,432.205993652,,-0.00289484206587,,,,,,,1774571952.13,,1774571955.51
0.923039078712,432.180969238,,-0.00289484206587,,,,,,,1774571956.13,,1774571959.51
0.924490869045,432.205993652,,-0.00289484206587,,,,,,,1774571960.13,,1774571963.51
0.923039078712,432.205993652,,-0.00289484206587,,,,,,,1774571964.14,,1774571967.52
0.923039078712,432.180969238,1.02973604202,-0.00289484206587,3305.7966,-11746.4556,2.96182370186,3305.79660004,-11746.4556,0.64228117466,1774571973.46,-0.0139626339078,1774571975.52
0.923039078712,432.080780029,,-0.0260535702109,,,,,,,1774571973.46,,1774571979.52
0.923039078712,432.256103516,,0.00289484206587,,,,,,,1774571980.51,,1774571983.53
0.923039078712,432.256103516,,0.00289484206587,,,,,,,1774571984.52,,1774571987.53
0.923039078712,432.180969238,,0.00289484206587,,,,,,,1774571988.52,,1774571991.53
0.923039078712,432.130859375,,0.00289484206587,,,,,,,1774571992.52,,1774571995.53
0.923039078712,432.130859375,,0.00289484206587,,,,,,,1774571996.52,,1774571995.53
0.923039078712,432.231048584,,0.00289484206587,,,,,,,1774572001.25,,1774572003.54
0.923039078712,432.281158447,,0.00289484206587,,,,,,,1774572005.26,,1774572007.54
0.923039078712,432.155914307,,0.00289484206587,3305.7295,-11746.2575,,3305.72950004,-11746.2575,,1774572009.26,,1774572011.54
0.923039078712,432.281158447,,0.00289484206587,3305.7289,-11746.2559,,3305.72890004,-11746.2559,,1774572013.27,,1774572014.59
0.923039078712,432.180969238,1.05347633362,0.00289484206587,3305.7282,-11746.2542,,3305.72820004,-11746.2542,,1774572017,,1774572018.59
0.353945046663,432.155914307,0.626150727272,0.00289484206587,3305.7276,-11746.2525,,3305.72760004,-11746.2525,,1774572021.01,,1774572022.6
-0.0264188032597,432.105834961,0.721111953259,0.00289484206587,,,,,,,1774572025.01,,1774572026.6
-0.0264188032597,392.783325195,1.14843761921,0.07526589185,3305.7269,-11746.2508,,3305.72690004,-11746.2508,,1774572029.01,,1774572030.6
-0.0264188032597,318.671661377,1.1721779108,-0.00578968413174,3305.7269,-11746.2496,,3305.72690004,-11746.2496,,1774572033.02,,1774572034.6
-0.0264188032597,243.407913208,1.26713907719,-0.00578968413174,3305.7271,-11746.2485,,3305.72710004,-11746.2485,,1774572037.09,,1774572038.61
-0.0264188032597,169.346359253,1.64698410034,-0.00289484206587,3305.7275,-11746.2475,,3305.72750004,-11746.2475,,1774572041.09,,1774572042.61
-0.0322258844972,92.7300949097,1.64698410034,-0.00289484206587,,,,,,,1774572045.1,,1774572046.61
-0.0307741146535,11.2799224854,1.71820509434,-0.00578968413174,3305.7277,-11746.2464,,3305.72770004,-11746.2464,,1774572049.1,,1774572050.61
-0.0322258844972,-74.6034240723,1.81316626072,-0.00289484206587,3305.728,-11746.2454,,3305.72800004,-11746.2454,,1774572053.11,,1774572054.62
-0.0322258844972,-169.678726196,1.76568567753,-0.00578968413174,3305.7283,-11746.2444,,3305.72830004,-11746.2444,,1774572057.11,,1774572058.62
-0.0322258844972,-274.246520996,1.81316626072,-0.00578968413174,3305.7285,-11746.2434,,3305.72850004,-11746.2434,,1774572061.11,,1774572062.62
-0.0322258844972,-391.587860107,2.33545303345,-0.00578968413174,3305.7288,-11746.2424,,3305.72880004,-11746.2424,,1774572065.12,,1774572066.62
-0.575188040733,,2.57285618782,-0.00578968413174,,,4.88343143463,3305.72886353,-11746.2425927,-0.577703952789,1774572069.12,0.0593411959708,1774572070.62
-0.575188040733,-409.97177124,3.75987172127,0.45151591301,,,4.98466014862,3305.72944793,-11746.2439448,-0.589921295643,1774572073.22,0.0523598790169,1774572074.63
-0.575188040733,-418.086730957,5.23177099228,0.45151591301,,,5.13475847244,3305.72993788,-11746.2447525,-0.549778699875,1774572078.84,0.0680678412318,1774572078.63
-0.711654484272,-426.101501465,5.92024040222,-0.288131594658,,,5.19235467911,3305.73031349,-11746.245302,-0.527089416981,1774572082.84,0.0872664600611,1774572082.63
-0.711654484272,-428.380706787,7.10725593567,-0.355819404125,,,5.15046644211,3305.73119796,-11746.2467128,-0.525344133377,1774572086.84,0.0593411959708,1774572090.63
-0.713106215,-428.405761719,8.29427146912,-0.437511503696,,,5.08065366745,3305.73159739,-11746.2474526,-0.514872133732,1774572092.58,0.0471238903701,1774572094.64
-0.833603203297,-428.430786133,9.05396175385,-0.437511503696,,,5.04400157928,3305.73194958,-11746.2481607,-0.500909507275,1774572096.59,0.054105207324,1774572098.64
-0.833603203297,-428.380706787,10.668302536,-0.437511503696,,,4.98466014862,3305.73262609,-11746.2497259,-0.485201537609,1774572100.6,0.0506145469844,1774572102.64
-0.833603203297,-428.405761719,11.3092908859,-0.348817199469,,,4.88343143463,3305.73286884,-11746.2504626,-0.445058971643,1774572104.6,0.0383972451091,1774572106.64
-0.833603203297,-428.430786133,12.4488258362,-0.353485405445,,,4.8555059433,3305.73325901,-11746.2517517,-0.453785598278,1774572108.6,0.0471238903701,1774572110.65
-0.833603203297,-428.430786133,13.2797365189,-0.302136003971,,,4.84852457047,3305.73355188,-11746.2527408,-0.42760565877,1774572112.6,0.045378562063,1774572114.65
-0.833603203297,-428.430786133,14.2293491364,-0.246061503887,,,4.8310713768,3305.73389364,-11746.2539629,-0.418879032135,1774572116.61,0.0506145469844,1774572118.65
-0.833603203297,-428.455841064,14.8940782547,-0.243166700006,,,4.79441928864,3305.73408788,-11746.2547531,-0.438077628613,1774572120.61,0.0436332300305,1774572122.65
-0.833603203297,-428.480895996,16.0098724365,-0.243166700006,,,4.77172994614,3305.73438769,-11746.2560844,-0.424115002155,1774572124.66,0.0418879017234,1774572126.66
-0.833603203297,-428.455841064,16.864522934,-0.205533698201,,,4.69668102264,3305.73456682,-11746.2572129,-0.40840703249,1774572128.66,0.0471238903701,1774572130.66
-0.833603203297,-428.455841064,17.7903957367,-0.188164696097,,,4.60941457748,3305.73466947,-11746.2584392,-0.40840703249,1774572132.66,0.0436332300305,1774572134.66
-0.833603203297,-428.455841064,18.692527771,-0.165005907416,,,4.53087472916,3305.73469046,-11746.2596509,-0.406661719084,1774572136.66,0.0383972451091,1774572138.66
-0.833603203297,-428.50592041,19.5709190369,-0.107109099627,,,4.45931625366,3305.73464018,-11746.2608216,-0.406661719084,1774572140.67,0.0383972451091,1774572142.67
-0.833603203297,-428.455841064,20.3780899048,-0.0578968413174,,,4.4209189415,3305.73455798,-11746.2619113,-0.401425719261,1774572144.67,0.0418879017234,1774572146.67
-0.833603203297,-428.355651855,21.351442337,-0.00289484206587,,,4.46978807449,3305.73451288,-11746.2632333,-0.399680405855,1774572148.67,0.0383972451091,1774572150.67
-0.833603203297,-428.430786133,22.0161705017,0.0376329384744,,,4.49596834183,3305.73450141,-11746.2641838,-0.390953749418,1774572152.67,0.0436332300305,1774572154.67
-0.833603203297,-428.405761719,23.0844860077,0.0376329384744,,,4.49596834183,3305.73448364,-11746.2656568,-0.394444406033,1774572156.68,0.0383972451091,1774572158.67
-0.833603203297,-428.455841064,23.7492141724,0.0376329384744,,,4.55007314682,3305.73451391,-11746.2665602,-0.397935062647,1774572160.68,0.0436332300305,1774572162.68
-0.833603203297,-428.430786133,24.5801258087,0.0376329384744,,,4.60941457748,3305.7346072,-11746.2676747,-0.401425719261,1774572164.69,0.0506145469844,1774572166.68
-0.833603203297,-428.380706787,25.4822559357,0.0376329384744,,,4.66526508331,3305.73475901,-11746.2688293,-0.403171062469,1774572168.69,0.0506145469844,1774572170.68
-0.833603203297,-428.380706787,26.1944656372,-0.0636865198612,,,4.71762514114,3305.73492298,-11746.2697554,-0.411897689104,1774572172.69,0.045378562063,1774572174.68
-0.833603203297,-428.355651855,27.2627811432,-0.0926349386573,,,4.7839474678,3305.73524667,-11746.2711254,-0.406661719084,1774572176.69,0.0558505356312,1774572178.69
-0.833603203297,-428.455841064,27.880027771,-0.130267798901,,,4.83630752563,3305.7354628,-11746.2718849,-0.418879032135,1774572180.7,0.0575958639383,1774572182.69
-0.833603203297,-428.455841064,28.7584190369,-0.165005907416,,,4.8520154953,3305.73578299,-11746.2729544,-0.422369688749,1774572184.7,0.0471238903701,1774572186.69
-0.833603203297,-428.480895996,29.6605510712,-0.214218303561,,,4.82234477997,3305.73609678,-11746.2741101,-0.403171062469,1774572188.7,0.0471238903701,1774572190.69
-0.833603203297,-428.480895996,30.3252811432,-0.243166700006,,,4.73682355881,3305.73627329,-11746.2750199,-0.397935062647,1774572192.71,0.0418879017234,1774572194.7
-0.689877927303,-428.405761719,31.0374889374,-0.243166700006,,,4.62861299515,3305.73636579,-11746.2759445,-0.399680405855,1774572196.71,0.0401425734162,1774572198.7
-0.689877927303,-428.455841064,32.1058044434,-0.199744105339,,,4.55007314682,3305.73641498,-11746.277413,-0.397935062647,1774572200.71,0.0383972451091,1774572202.7
-0.689877927303,-428.455841064,33.1503791809,-0.138952404261,,,4.48200559616,3305.73638391,-11746.2787172,-0.436332315207,1774572204.72,0.0401425734162,1774572206.7
-0.689877927303,-428.430786133,33.8151054382,-0.07526589185,,,4.51342153549,3305.736386,-11746.2795129,-0.448549628258,1774572208.77,0.0383972451091,1774572210.7
-0.689877927303,-428.530975342,34.7884597778,-0.0144742103294,,,4.57799863815,3305.73645491,-11746.2807203,-0.455530941486,1774572212.78,0.0471238903701,1774572214.71
-0.689877927303,-428.480895996,35.6668510437,-0.0144742103294,,,4.64781188965,3305.736577,-11746.2817686,-0.453785598278,1774572216.78,0.0436332300305,1774572218.71
-0.688426136971,-428.430786133,36.7826461792,-0.0144742103294,,,4.69842624664,3305.73677837,-11746.2830252,-0.460766911507,1774572220.78,0.0471238903701,1774572222.71
-0.689877927303,-428.455841064,37.7797393799,-0.07526589185,,,4.75253152847,3305.73702232,-11746.2841981,-0.450294941664,1774572224.79,0.0436332300305,1774572226.71
-0.689877927303,-428.380706787,38.563167572,-0.121583297849,,,4.7822022438,3305.73723566,-11746.2851072,-0.450294941664,1774572228.79,0.045378562063,1774572230.72
-0.689877927303,-428.430786133,39.6552238464,-0.153426602483,,,4.8101272583,3305.73757293,-11746.2864034,-0.441568315029,1774572232.8,0.0488692186773,1774572234.72
-0.689877927303,-428.380706787,40.3911743164,-0.191059499979,,,4.8310713768,3305.73781233,-11746.2872594,-0.441568315029,1774572236.8,0.0488692186773,1774572238.72
-0.689877927303,-428.405761719,41.5069656372,-0.222902804613,,,4.86597776413,3305.73821108,-11746.2885347,-0.445058971643,1774572240.8,0.0471238903701,1774572242.72
-0.689877927303,-428.455841064,42.266658783,-0.248956397176,,,4.86248731613,3305.73847517,-11746.2893884,-0.452040284872,1774572244.8,0.0506145469844,1774572246.72
-0.689877927303,-428.455841064,43.2874908447,-0.281129509211,,,4.7822022438,3305.73875125,-11746.2905648,-0.457276254892,1774572248.81,0.054105207324,1774572250.73
-0.688426136971,-428.405761719,44.0471801758,-0.306804090738,,,4.64432096481,3305.73885603,-11746.2914881,-0.455530941486,1774572252.81,0.0523598790169,1774572254.73
-0.689877927303,-428.430786133,45.0917549133,-0.306804090738,,,4.53960132599,3305.73888676,-11746.292734,-0.445058971643,1774572256.82,0.0471238903701,1774572258.73
-0.689877927303,-428.455841064,46.0413665771,-0.191059499979,,,4.40521097183,3305.73878396,-11746.2938918,-0.443313628435,1774572260.82,0.045378562063,1774572262.73
-0.689877927303,-428.405761719,46.8960189819,-0.138952404261,,,4.30049133301,3305.73859645,-11746.294938,-0.436332315207,1774572264.83,0.0366519130766,1774572266.74
-0.689877927303,-428.405761719,48.0118141174,-0.0810555815697,,,4.20624351501,3305.7382518,-11746.2962429,-0.445058971643,1774572268.83,0.0349065847695,1774572270.74
-0.689877927303,-428.480895996,48.6765403748,0,,,4.13817548752,3305.73800217,-11746.2970027,-0.446804285049,1774572272.83,0.0331612564623,1774572274.74
-0.689877927303,-428.455841064,49.8160743713,0.0723710507154,,,4.08057975769,3305.73752131,-11746.2982492,-0.448549628258,1774572276.83,0.0331612564623,1774572278.74
-0.689877927303,-428.380706787,50.646987915,0.150531694293,,,4.04043722153,3305.73714081,-11746.2991395,-0.453785598278,1774572280.83,0.0279252678156,1774572282.75
-0.689877927303,-428.405761719,51.5965995789,0.20263889432,,,4.03869199753,3305.73669712,-11746.300173,-0.445058971643,1774572284.84,0.0296705979854,1774572286.75
-0.689877927303,-428.380706787,52.5224723816,0.251851201057,,,4.07010793686,3305.7362845,-11746.3012138,-0.439822971821,1774572288.84,0.0314159281552,1774572290.75
-0.689877927303,-428.405761719,53.4008636475,0.286964595318,,,4.09454250336,3305.73590776,-11746.3022276,-0.434586971998,1774572292.9,0.0314159281552,1774572294.75
-0.689877927303,-428.430786133,54.2555160522,0.286964595318,,,4.12246751785,3305.73556459,-11746.3032255,-0.441568315029,1774572296.9,0.0296705979854,1774572298.76
-0.689877927303,-428.455841064,55.1813850403,0.286964595318,,,4.17133712769,3305.73524409,-11746.3043055,-0.439822971821,1774572300.9,0.0349065847695,1774572302.76
-0.689877927303,-428.50592041,56.1310005188,0.286964595318,,,4.26558446884,3305.73499896,-11746.3054717,-0.432841658592,1774572304.9,0.0366519130766,1774572306.76
-0.689877927303,-428.430786133,56.9619102478,0.286964595318,,,4.34587001801,3305.73485991,-11746.3064672,-0.432841658592,1774572308.9,0.0418879017234,1774572310.76
-0.689877927303,-428.430786133,57.8403015137,0.217113107443,,,4.37903118134,3305.73474136,-11746.3075339,-0.445058971643,1774572312.91,0.0436332300305,1774572314.76
-0.689877927303,-428.380706787,58.7424316406,0.196849197149,,,4.37903118134,3305.73461894,-11746.3086355,-0.441568315029,1774572316.91,0.0383972451091,1774572318.77
-0.689877927303,-428.430786133,59.5258636475,0.159216299653,,,4.392993927,3305.73451934,-11746.3096395,-0.436332315207,1774572320.92,0.0331612564623,1774572322.77
-0.689877927303,-428.480895996,60.4754753113,0.159216299653,,,4.43662691116,3305.73444693,-11746.310805,-0.441568315029,1774572324.92,0.0314159281552,1774572326.77
-0.689877927303,-428.480895996,61.4488296509,0.159216299653,,,4.47851467133,3305.73441565,-11746.3119734,-0.441568315029,1774572328.93,0.0349065847695,1774572330.77
-0.689877927303,-428.330596924,62.2560005188,0.13316270709,,,4.50818538666,3305.73441311,-11746.3133965,-0.441568315029,1774572332.93,0.0366519130766,1774572334.78
-0.689877927303,-428.455841064,63.4904937744,0.107109099627,,,4.52214813232,3305.73442384,-11746.3144731,-0.441568315029,1774572338.68,0.0383972451091,1774572338.78
-0.689877927303,-428.455841064,64.2264480591,0.104214303195,,,4.50644016266,3305.73442096,-11746.3153603,-0.448549628258,1774572342.68,0.0366519130766,1774572342.78
-0.689877927303,-428.430786133,65.2710189819,0.104214303195,,,4.49247741699,3305.73440204,-11746.3166204,-0.453785598278,1774572346.68,0.0349065847695,1774572346.78
-0.689877927303,-428.405761719,66.1019287109,0.104214303195,,,4.48549604416,3305.73438096,-11746.3176297,-0.452040284872,1774572350.69,0.0331612564623,1774572350.79
-0.689877927303,-428.405761719,67.0515441895,0.104214303195,,,4.51865720749,3305.73438923,-11746.3188057,-0.441568315029,1774572354.69,0.0349065847695,1774572354.79
-0.689877927303,-428.455841064,67.8824539185,0.104214303195,,,4.59021615982,3305.7344597,-11746.3198512,-0.429351001978,1774572358.7,0.0314159281552,1774572358.79
-0.689877927303,-428.430786133,68.832069397,0.104214303195,,,4.67050123215,3305.73461836,-11746.3210178,-0.425860345364,1774572362.7,0.0401425734162,1774572362.79
-0.689877927303,-428.405761719,69.662979126,0.0231587290764,,,4.7630033493,3305.73484021,-11746.3220385,-0.42760565877,1774572366.7,0.0436332300305,1774572366.79
-0.689877927303,-428.455841064,70.5888519287,-0.00868452619761,,,4.85899686813,3305.73518431,-11746.323163,-0.422369688749,1774572370.71,0.0471238903701,1774572370.8
-0.689877927303,-428.405761719,71.3722763062,-0.0723710507154,,,4.93579101562,3305.73552911,-11746.3240669,-0.42760565877,1774572374.71,0.0506145469844,1774572374.8
-0.689877927303,-428.430786133,72.3931121826,-0.141847193241,,,4.97942447662,3305.73601014,-11746.3251944,-0.438077628613,1774572378.76,0.0471238903701,1774572378.8
-0.689877927303,-428.430786133,73.0103607178,-0.217113107443,,,4.98291492462,3305.73630089,-11746.3258701,-0.441568315029,1774572382.77,0.0471238903701,1774572382.8
-0.689877927303,-428.430786133,74.0549316406,-0.282296508551,,,4.96546173096,3305.73678493,-11746.327045,-0.438077628613,1774572386.77,0.0506145469844,1774572386.81
-0.689877927303,-428.430786133,74.7908859253,-0.320808500051,,,4.89739370346,3305.73708431,-11746.3279176,-0.436332315207,1774572390.78,0.0506145469844,1774572390.81
-0.689877927303,-428.430786133,75.8354568481,-0.320808500051,,,4.8048915863,3305.73741308,-11746.3292049,-0.425860345364,1774572394.78,0.045378562063,1774572394.81
-0.689877927303,-428.480895996,76.5714035034,-0.320808500051,,,4.70366239548,3305.73756194,-11746.3301081,-0.418879032135,1774572398.78,0.045378562063,1774572398.81
-0.689877927303,-428.480895996,77.449798584,-0.270626187325,,,4.62512254715,3305.73767188,-11746.3312407,-0.420624345541,1774572402.78,0.0436332300305,1774572402.82
-0.689877927303,-428.50592041,78.3044509888,-0.199744105339,,,4.55356407166,3305.73771121,-11746.3323203,-0.429351001978,1774572406.79,0.0436332300305,1774572406.82
-0.689877927303,-428.455841064,79.040397644,-0.182374998927,,,4.49247741699,3305.73769733,-11746.3332449,-0.432841658592,1774572410.79,0.0436332300305,1774572410.82
-0.689877927303,-428.480895996,80.0612335205,-0.13316270709,,,4.43488168716,3305.73761719,-11746.3345047,-0.434586971998,1774572414.79,0.0418879017234,1774572414.82
-0.689877927303,-428.430786133,80.7259597778,-0.0810555815697,,,4.35983228683,3305.73751157,-11746.3353323,-0.436332315207,1774572418.79,0.0383972451091,1774572418.83
-0.689877927303,-428.405761719,81.7705383301,-0.0550020001829,,,4.26209402084,3305.7372463,-11746.3365758,-0.443313628435,1774572422.8,0.0383972451091,1774572422.83
-0.689877927303,-428.455841064,82.4827423096,-0.00578968413174,,,4.16261005402,3305.73699271,-11746.337407,-0.438077628613,1774572426.8,0.0383972451091,1774572426.83
-0.689877927303,-428.455841064,83.3136520386,0.0463174693286,,,4.11723184586,3305.73665951,-11746.3383617,-0.436332315207,1774572430.8,0.0331612564623,1774572430.83
-0.689877927303,-428.430786133,84.2395248413,0.121583297849,,,4.15039300919,3305.73631608,-11746.3394459,-0.436332315207,1774572434.81,0.0366519130766,1774572434.83
-0.689877927303,-428.405761719,84.975479126,0.196849197149,,,4.20449829102,3305.73608555,-11746.3403134,-0.438077628613,1774572438.82,0.0366519130766,1774572438.84
-0.689877927303,-428.430786133,85.9250869751,0.220008000731,,,4.24289560318,3305.73581196,-11746.3414998,-0.436332315207,1774572442.82,0.0401425734162,1774572442.84
-0.689877927303,-428.405761719,86.7560043335,0.220008000731,,,4.27605676651,3305.73561568,-11746.342477,-0.434586971998,1774572446.82,0.0349065847695,1774572446.84
-0.689877927303,-428.430786133,87.7056121826,0.182374998927,,,4.33365249634,3305.73543001,-11746.3437126,-0.42760565877,1774572450.82,0.0366519130766,1774572450.84
-0.689877927303,-428.50592041,88.4178237915,0.182374998927,,,4.394739151,3305.73534544,-11746.344578,-0.42760565877,1774572454.83,0.0383972451091,1774572454.85
-0.689877927303,-428.480895996,89.2487335205,0.138952404261,,,4.440117836,3305.73528355,-11746.3456238,-0.432841658592,1774572458.88,0.0383972451091,1774572458.85
-0.689877927303,-428.455841064,90.198348999,0.101319402456,,,4.46804285049,3305.73524088,-11746.3468224,-0.429351001978,1774572462.88,0.0401425734162,1774572462.85
-0.689877927303,-428.430786133,90.9817733765,0.0694762021303,,,4.51865720749,3305.73524817,-11746.3478597,-0.425860345364,1774572466.88,0.0383972451091,1774572466.85
-0.689877927303,-428.430786133,91.9788665771,0.0694762021303,,,4.58672523499,3305.73532855,-11746.349107,-0.420624345541,1774572470.88,0.0401425734162,1774572470.86
-0.689877927303,-428.430786133,92.5723800659,0.0173690505326,,,4.64955711365,3305.73541764,-11746.3498622,-0.420624345541,1774572474.89,0.045378562063,1774572474.86
-0.689877927303,-428.50592041,93.6644287109,-0.0144742103294,,,4.69842624664,3305.73563773,-11746.3512357,-0.425860345364,1774572478.89,0.045378562063,1774572478.86
-0.689877927303,-428.455841064,94.352897644,-0.0636865198612,,,4.76125812531,3305.73581898,-11746.3520757,-0.431096315384,1774572482.89,0.0471238903701,1774572482.86
-0.689877927303,-428.480895996,95.3499908447,-0.110004000366,,,4.79441928864,3305.73612063,-11746.353303,-0.424115002155,1774572486.9,0.0506145469844,1774572486.86
-0.689877927303,-428.480895996,96.1096801758,-0.153426602483,,,4.81187295914,3305.73637157,-11746.3542614,-0.411897689104,1774572490.9,0.0506145469844,1774572490.87
-0.689877927303,-428.50592041,96.7981491089,-0.20263889432,,,4.79092884064,3305.73657746,-11746.3551101,-0.420624345541,1774572494.91,0.0471238903701,1774572494.87
-0.689877927303,-428.455841064,97.8427276611,-0.234482198954,,,4.76998472214,3305.73687648,-11746.3564473,-0.42760565877,1774572498.91,0.0523598790169,1774572498.87
-0.689877927303,-428.50592041,98.5074539185,-0.234482198954,,,4.75602197647,3305.73704807,-11746.3572601,-0.42760565877,1774572502.91,0.0506145469844,1774572502.87
-0.689877927303,-428.405761719,99.5757675171,-0.234482198954,,,4.72111558914,3305.73728647,-11746.3585838,-0.432841658592,1774572506.92,0.0523598790169,1774572506.88
-0.689877927303,-428.480895996,100.311721802,-0.234482198954,,,4.68271827698,3305.73742151,-11746.3595051,-0.425860345364,1774572510.92,0.0488692186773,1774572510.88
-0.689877927303,-428.455841064,101.047668457,-0.234482198954,,,4.62861299515,3305.7375164,-11746.3604536,-0.418879032135,1774572514.92,0.045378562063,1774572514.88
-0.689877927303,-428.50592041,102.044761658,-0.234482198954,,,4.55530929565,3305.73756349,-11746.361696,-0.422369688749,1774572518.93,0.0418879017234,1774572518.88
-0.689877927303,-428.430786133,102.733230591,-0.193954393268,,,4.47502422333,3305.73753792,-11746.3625564,-0.434586971998,1774572522.93,0.0418879017234,1774572522.88
-0.689877927303,-428.430786133,103.754066467,-0.136057496071,,,4.396484375,3305.7374157,-11746.3638266,-0.434586971998,1774572526.94,0.0401425734162,1774572526.89
-0.689877927303,-428.405761719,104.4425354,-0.107109099627,,,4.30223655701,3305.73726601,-11746.3646689,-0.434586971998,1774572530.94,0.0418879017234,1774572530.89
-0.689877927303,-428.50592041,105.344665527,-0.0578968413174,,,4.24114990234,3305.73701444,-11746.3657523,-0.436332315207,1774572534.94,0.0401425734162,1774572534.89
-0.689877927303,-428.455841064,106.223052979,0.00289484206587,,,4.20624351501,3305.73673567,-11746.3668077,-0.42760565877,1774572538.95,0.0383972451091,1774572538.89
-0.689877927303,-428.530975342,107.148925781,0.0636865198612,,,4.19926214218,3305.73643908,-11746.3679037,-0.422369688749,1774572543.21,0.0366519130766,1774572542.9
-0.689877927303,-428.480895996,108.003578186,0.112898796797,,,4.22893285751,3305.73617287,-11746.3689979,-0.424115002155,1774572547.21,0.0366519130766,1774572546.9
-0.689877927303,-428.556030273,108.739532471,0.138952404261,,,4.27605676651,3305.73598018,-11746.3699571,-0.420624345541,1774572551.21,0.0331612564623,1774572550.9
-0.689877927303,-428.530975342,109.760360718,0.138952404261,,,4.33888864517,3305.7357875,-11746.3712794,-0.417133688927,1774572555.21,0.0383972451091,1774572554.9
-0.689877927303,-428.50592041,110.401351929,0.138952404261,,,4.394739151,3305.73570954,-11746.3720772,-0.417133688927,1774572559.21,0.0383972451091,1774572558.91
-0.689877927303,-428.455841064,111.422187805,0.101319402456,,,4.42440986633,3305.73561395,-11746.3733959,-0.422369688749,1774572563.22,0.0471238903701,1774572562.91
-0.689877927303,-428.480895996,112.15813446,0.0578968413174,,,4.440117836,3305.73555738,-11746.3743518,-0.429351001978,1774572567.22,0.0401425734162,1774572566.91
-0.689877927303,-428.455841064,112.989044189,0.0578968413174,,,4.45757102966,3305.73550939,-11746.3754316,-0.418879032135,1774572571.22,0.0418879017234,1774572570.91
-0.689877927303,-428.50592041,113.938659668,0.0578968413174,,,4.4645524025,3305.73546151,-11746.3766736,-0.415388375521,1774572575.22,0.0349065847695,1774572574.91
-0.689877927303,-428.530975342,114.603385925,0.0578968413174,,,4.4645524025,3305.73542713,-11746.3775656,-0.403171062469,1774572579.23,0.0349065847695,1774572578.92
-0.689877927303,-428.50592041,115.57673645,0.0578968413174,,,4.42440986633,3305.73533477,-11746.3788398,-0.413643032312,1774572583.23,0.0366519130766,1774572582.92
-0.689877927303,-428.480895996,116.312690735,0.0578968413174,,,4.398229599,3305.73520916,-11746.3801656,-0.420624345541,1774572587.24,0.0401425734162,1774572590.92
-0.689877927303,-428.50592041,117.547187805,0.0578968413174,,,4.394739151,3305.7351051,-11746.3812305,-0.432841658592,1774572592.85,0.0383972451091,1774572594.93
-0.689877927303,-428.455841064,118.330612183,0.0434226281941,,,4.42964553833,3305.73503429,-11746.382271,-0.422369688749,1774572596.85,0.0383972451091,1774572598.93
-0.689877927303,-428.455841064,119.280227661,0.0434226281941,,,4.46106147766,3305.73498342,-11746.383497,-0.420624345541,1774572600.85,0.045378562063,1774572602.93
-0.689877927303,-428.50592041,119.921218872,0.0434226281941,,,4.49596834183,3305.73497328,-11746.3843364,-0.418879032135,1774572604.86,0.045378562063,1774572606.93
-0.689877927303,-428.530975342,120.847091675,0.0434226281941,,,4.54483747482,3305.73500791,-11746.3855277,-0.422369688749,1774572608.86,0.045378562063,1774572610.93
-0.689877927303,-428.480895996,121.654258728,0.0434226281941,,,4.60243320465,3305.73508567,-11746.3865278,-0.424115002155,1774572612.86,0.0436332300305,1774572614.94
-0.689877927303,-428.530975342,122.556388855,-0.0376329384744,,,4.66177463531,3305.7352329,-11746.3876739,-0.422369688749,1774572616.87,0.0471238903701,1774572618.94
-0.689877927303,-428.556030273,123.434783936,-0.0607916787267,,,4.70017147064,3305.73541709,-11746.3888125,-0.413643032312,1774572620.87,0.0506145469844,1774572622.94
-0.689877927303,-428.530975342,124.241950989,-0.104214303195,,,4.72111558914,3305.7356049,-11746.3898553,-0.410152375698,1774572624.87,0.0488692186773,1774572626.94
-0.689877927303,-428.50592041,125.215309143,-0.156321406364,,,4.70889854431,3305.7358171,-11746.3911081,-0.413643032312,1774572628.91,0.045378562063,1774572630.95
-0.689877927303,-428.556030273,125.808815002,-0.182374998927,,,4.68446350098,3305.73593589,-11746.3919103,-0.406661719084,1774572632.91,0.0471238903701,1774572634.95
-0.689877927303,-428.480895996,126.782165527,-0.182374998927,,,4.63733959198,3305.73607495,-11746.3932039,-0.40840703249,1774572636.92,0.045378562063,1774572638.95
-0.689877927303,-428.581085205,127.58934021,-0.182374998927,,,4.60592412949,3305.73615923,-11746.3942481,-0.417133688927,1774572640.92,0.0418879017234,1774572642.95
-0.689877927303,-428.480895996,128.301544189,-0.182374998927,,,4.57799863815,3305.73621044,-11746.3951455,-0.420624345541,1774572644.92,0.0436332300305,1774572646.96
-0.689877927303,-428.50592041,129.251159668,-0.150531694293,,,4.54309225082,3305.73624518,-11746.3964045,-0.418879032135,1774572648.93,0.0436332300305,1774572650.96
-0.689877927303,-428.50592041,129.963363647,-0.150531694293,,,4.49422264099,3305.73623261,-11746.3973325,-0.417133688927,1774572652.93,0.045378562063,1774572654.96
-0.689877927303,-428.455841064,130.77053833,-0.150531694293,,,4.44884443283,3305.73618049,-11746.3983384,-0.420624345541,1774572656.93,0.0418879017234,1774572658.96
-0.689877927303,-428.455841064,131.743896484,-0.0839504301548,,,4.41393756866,3305.73607971,-11746.3995767,-0.422369688749,1774572660.94,0.0383972451091,1774572662.96
-0.689877927303,-428.50592041,132.47984314,-0.0636865198612,,,4.394739151,3305.73598628,-11746.4005329,-0.418879032135,1774572664.94,0.0436332300305,1774572666.97
-0.689877927303,-428.530975342,133.476928711,-0.0260535702109,,,4.396484375,3305.73586228,-11746.4018214,-0.420624345541,1774572668.94,0.0401425734162,1774572670.97
-0.689877927303,-428.50592041,134.117919922,-0.0115793598816,,,4.399974823,3305.73578333,-11746.4026679,-0.418879032135,1774572672.95,0.0436332300305,1774572674.97
-0.689877927303,-428.455841064,135.138748169,-0.0115793598816,,,4.41219234467,3305.73567292,-11746.4040004,-0.417133688927,1774572676.95,0.0436332300305,1774572678.97
-0.689877927303,-428.50592041,135.898452759,-0.0115793598816,,,4.396484375,3305.73557868,-11746.4049797,-0.417133688927,1774572680.96,0.045378562063,1774572682.98
-0.689877927303,-428.530975342,136.515701294,-0.0115793598816,,,4.394739151,3305.73550056,-11746.4057791,-0.415388375521,1774572684.96,0.0418879017234,1774572686.98
-0.689877927303,-428.480895996,137.631484985,-0.0115793598816,,,4.38601255417,3305.73534896,-11746.4072205,-0.418879032135,1774572688.96,0.0436332300305,1774572690.98
-0.689877927303,-428.556030273,138.296218872,-0.0115793598816,,,4.35808706284,3305.735243,-11746.408041,-0.420624345541,1774572692.96,0.0401425734162,1774572694.98
-0.689877927303,-428.530975342,139.198348999,0.0115793598816,,,4.32143545151,3305.735048,-11746.4092529,-0.410152375698,1774572696.97,0.0366519130766,1774572698.99
-0.689877927303,-428.480895996,140.07673645,0.0144742103294,,,4.28129243851,3305.73483031,-11746.4103623,-0.406661719084,1774572700.97,0.0366519130766,1774572702.99
-0.689877927303,-428.530975342,140.860168457,0.0492123104632,,,4.26733016968,3305.73461991,-11746.4113706,-0.40840703249,1774572704.97,0.0383972451091,1774572706.99
-0.689877927303,-428.556030273,141.809783936,0.0810555815697,,,4.28827381134,3305.73438521,-11746.4126057,-0.410152375698,1774572708.97,0.0401425734162,1774572710.99
-0.689877927303,-428.631164551,142.427032471,0.110004000366,,,4.34063386917,3305.7342668,-11746.4134267,-0.40840703249,1774572713.02,0.0401425734162,1774572715
-0.689877927303,-428.480895996,143.281677246,0.110004000366,,,4.40172052383,3305.73416162,-11746.4145728,-0.406661719084,1774572717.02,0.0436332300305,1774572719
-0.689877927303,-428.530975342,144.207550049,0.110004000366,,,4.47327899933,3305.73412423,-11746.4157714,-0.406661719084,1774572721.02,0.0383972451091,1774572723
-0.689877927303,-428.530975342,144.84854126,0.0723710507154,,,4.52738428116,3305.73413644,-11746.4166215,-0.40840703249,1774572725.03,0.0418879017234,1774572727
-0.689877927303,-428.50592041,145.940597534,0.0347381010652,,,4.57450819016,3305.73421472,-11746.4180686,-0.410152375698,1774572729.03,0.0488692186773,1774572731
-0.689877927303,-428.50592041,146.581588745,-0.0115793598816,,,4.60243320465,3305.73428077,-11746.418918,-0.406661719084,1774572733.03,0.0471238903701,1774572735.01
-0.689877927303,-428.556030273,147.578674316,-0.0434226281941,,,4.62686777115,3305.73441232,-11746.4202529,-0.403171062469,1774572737.04,0.045378562063,1774572739.01
-0.689877927303,-428.581085205,148.362106323,-0.0781607404351,,,4.65479326248,3305.73454101,-11746.4213038,-0.401425719261,1774572741.04,0.045378562063,1774572743.01
-0.689877927303,-428.480895996,149.098052979,-0.104214303195,,,4.67399168015,3305.73467615,-11746.422276,-0.403171062469,1774572745.05,0.0523598790169,1774572747.01
-0.689877927303,-428.581085205,150.071411133,-0.130267798901,,,4.66701030731,3305.73484951,-11746.4235796,-0.403171062469,1774572749.05,0.0506145469844,1774572751.02
-0.689877927303,-428.530975342,150.759887695,-0.141847193241,,,4.62686777115,3305.73494272,-11746.4245255,-0.403171062469,1774572753.05,0.0436332300305,1774572755.02
-0.689877927303,-428.50592041,151.567047119,-0.141847193241,,,4.56054544449,3305.73498874,-11746.4256134,-0.403171062469,1774572757.06,0.045378562063,1774572759.02
-0.689877927303,-428.50592041,152.492919922,-0.144742101431,,,4.48200559616,3305.73495939,-11746.4268447,-0.40840703249,1774572761.06,0.0418879017234,1774572763.02
-0.689877927303,-428.480895996,153.157653809,-0.141847193241,,,4.4191737175,3305.73489426,-11746.4276912,-0.410152375698,1774572765.06,0.0418879017234,1774572767.03
-0.689877927303,-428.556030273,154.202224731,-0.0810555815697,,,4.35110569,3305.73470992,-11746.429055,-0.411897689104,1774572769.06,0.0418879017234,1774572771.03
-0.689877927303,-428.530975342,154.890701294,-0.0202638898045,,,4.29874610901,3305.73454968,-11746.4299413,-0.411897689104,1774572773.07,0.0383972451091,1774572775.03
-0.689877927303,-428.50592041,155.626647949,0.0173690505326,,,4.25162220001,3305.73434183,-11746.4308744,-0.411897689104,1774572777.07,0.0401425734162,1774572779.03
-0.689877927303,-428.556030273,156.599990845,0.0636865198612,,,4.22369670868,3305.73403673,-11746.4321042,-0.415388375521,1774572781.08,0.0349065847695,1774572783.04
-0.689877927303,-428.480895996,157.240982056,0.101319402456,,,4.22718763351,3305.73384442,-11746.4328895,-0.417133688927,1774572785.08,0.0366519130766,1774572787.04
-0.689877927303,-428.581085205,158.285552979,0.144742101431,,,4.23067808151,3305.73352451,-11746.4342129,-0.420624345541,1774572789.08,0.0366519130766,1774572791.04
-0.689877927303,-428.631164551,159.021514893,0.165005907416,,,4.25511264801,3305.73331631,-11746.435161,-0.417133688927,1774572793.12,0.0383972451091,1774572795.04
-0.689877927303,-428.606109619,159.733718872,0.165005907416,,,4.28827381134,3305.73313945,-11746.4360916,-0.406661719084,1774572797.12,0.0366519130766,1774572799.04
-0.689877927303,-428.631164551,160.778289795,0.167900800705,,,4.30398178101,3305.73289473,-11746.4374806,-0.401425719261,1774572801.12,0.0418879017234,1774572803.05
-0.689877927303,-428.50592041,161.419281006,0.165005907416,,,4.32492589951,3305.7327612,-11746.4383264,-0.403171062469,1774572805.12,0.0418879017234,1774572807.05
-0.689877927303,-428.556030273,162.273925781,0.165005907416,,,4.349360466,3305.73260569,-11746.4394643,-0.401425719261,1774572809.13,0.0418879017234,1774572811.05
-0.689877927303,-428.50592041,163.199798584,0.165005907416,,,4.37728595734,3305.73246895,-11746.4406781,-0.399680405855,1774572813.14,0.0383972451091,1774572815.05
-0.689877927303,-428.530975342,163.793304443,0.13316270709,,,4.38426685333,3305.73238278,-11746.4414859,-0.404916375875,1774572817.14,0.045378562063,1774572819.06
-0.689877927303,-428.581085205,164.861633301,0.138952404261,,,4.394739151,3305.73224931,-11746.4428516,-0.411897689104,1774572821.14,0.0401425734162,1774572823.06
-0.689877927303,-428.581085205,165.57383728,0.115793600678,,,4.40346574783,3305.73216226,-11746.4438157,-0.410152375698,1774572825.14,0.0418879017234,1774572827.06
-0.689877927303,-428.50592041,166.309783936,0.115793600678,,,4.44186306,3305.73210559,-11746.4447976,-0.410152375698,1774572829.15,0.0401425734162,1774572831.06
-0.689877927303,-428.631164551,167.259399414,0.118688501418,,,4.46978807449,3305.73206272,-11746.4460534,-0.406661719084,1774572833.15,0.0436332300305,1774572835.07
-0.689877927303,-428.556030273,167.924133301,0.118688501418,,,4.49945878983,3305.73205464,-11746.4469357,-0.40840703249,1774572837.16,0.0401425734162,1774572839.07
-0.689877927303,-428.606109619,168.921218872,0.121583297849,,,4.53436517715,3305.73208148,-11746.4482617,-0.40840703249,1774572841.16,0.0401425734162,1774572843.07
-0.689877927303,-428.480895996,169.728393555,0.118688501418,,,4.56578111649,3305.73213171,-11746.4493368,-0.40840703249,1774572845.17,0.0436332300305,1774572847.07
-0.689877927303,-428.581085205,170.34564209,0.121583297849,,,4.60243320465,3305.73222048,-11746.4504786,-0.406661719084,1774572849.17,0.0418879017234,1774572851.07
-0.689877927303,-428.581085205,171.58013916,0.118688501418,,,4.67224645615,3305.73237603,-11746.4516099,-0.404916375875,1774572854.79,0.0418879017234,1774572855.08
-0.689877927303,-428.581085205,172.695922852,-0.00868452619761,,,4.69842624664,3305.73261509,-11746.453102,-0.399680405855,1774572858.8,0.0506145469844,1774572859.08
-0.689877927303,-428.530975342,173.313171387,-0.0376329384744,,,4.70017147064,3305.73274935,-11746.453932,-0.394444406033,1774572862.8,0.045378562063,1774572863.08
-0.689877927303,-428.530975342,174.262786865,-0.0810555815697,,,4.67748260498,3305.73293553,-11746.4552429,-0.392699092627,1774572866.8,0.0418879017234,1774572867.08
-0.689877927303,-428.581085205,175.069961548,-0.110004000366,,,4.64955711365,3305.73306925,-11746.4563766,-0.396189749241,1774572870.81,0.0471238903701,1774572871.09
-0.689877927303,-428.50592041,175.687210083,-0.110004000366,,,4.64781188965,3305.73316412,-11746.4571912,-0.403171062469,1774572874.81,0.045378562063,1774572875.09
-0.689877927303,-428.556030273,176.494384766,-0.110004000366,,,4.63733959198,3305.7332782,-11746.4582526,-0.406661719084,1774572878.87,0.0471238903701,1774572879.09
-0.689877927303,-428.556030273,177.443984985,-0.110004000366,,,4.61465072632,3305.73338941,-11746.4595145,-0.410152375698,1774572882.87,0.0436332300305,1774572883.09
-0.689877927303,-428.581085205,178.037506104,-0.110004000366,,,4.58498001099,3305.73343818,-11746.4602892,-0.413643032312,1774572886.87,0.0383972451091,1774572887.09
-0.689877927303,-428.606109619,179.129547119,-0.110004000366,,,4.54483747482,3305.73347885,-11746.4616888,-0.411897689104,1774572890.88,0.0418879017234,1774572891.1
-0.689877927303,-428.556030273,179.794281006,-0.07526589185,,,4.52214813232,3305.73348799,-11746.4626077,-0.404916375875,1774572894.88,0.045378562063,1774572895.1
-0.689877927303,-428.631164551,180.530227661,-0.07526589185,,,4.50993061066,3305.73348766,-11746.4635895,-0.404916375875,1774572898.88,0.045378562063,1774572899.11
-0.689877927303,-428.631164551,181.59854126,-0.07526589185,,,4.52563858032,3305.73350602,-11746.4650139,-0.410152375698,1774572902.88,0.0471238903701,1774572903.1
-0.689877927303,-428.631164551,182.192047119,-0.07526589185,,,4.56403589249,3305.73354073,-11746.4657809,-0.410152375698,1774572906.89,0.0418879017234,1774572907.11
-0.689877927303,-428.530975342,183.141662598,-0.07526589185,,,4.61465072632,3305.73365452,-11746.4670721,-0.404916375875,1774572910.89,0.0471238903701,1774572911.11
-0.689877927303,-428.556030273,183.972579956,-0.07526589185,,,4.65304756165,3305.73378934,-11746.4681868,-0.399680405855,1774572914.89,0.0488692186773,1774572915.11
-0.689877927303,-428.606109619,184.66104126,-0.0723710507154,,,4.68271827698,3305.73392081,-11746.4690839,-0.396189749241,1774572918.9,0.0488692186773,1774572919.11
-0.689877927303,-428.606109619,185.753097534,-0.104214303195,,,4.69668102264,3305.73415394,-11746.4705529,-0.397935062647,1774572922.91,0.045378562063,1774572923.12
-0.689877927303,-428.581085205,186.370346069,-0.141847193241,,,4.69842624664,3305.73428529,-11746.4713727,-0.399680405855,1774572926.91,0.0506145469844,1774572927.12
-0.689877927303,-428.556030273,187.106292725,-0.159216299653,,,4.70540761948,3305.73445293,-11746.4723807,-0.399680405855,1774572930.91,0.0506145469844,1774572931.12
-0.689877927303,-428.606109619,188.12713623,-0.156321406364,,,4.70715284348,3305.73467649,-11746.4737127,-0.397935062647,1774572934.91,0.0506145469844,1774572935.12
-0.689877927303,-428.556030273,188.72064209,-0.191059499979,,,4.71937036514,3305.73482028,-11746.4745179,-0.399680405855,1774572938.92,0.0488692186773,1774572939.12
-0.556315004826,-428.606109619,189.337890625,-0.191059499979,,,4.71238899231,3305.73495627,-11746.4753066,-0.401425719261,1774572942.92,0.0523598790169,1774572943.13
-0.556315004826,-428.581085205,190.429946899,-0.214218303561,,,4.67224645615,3305.73515723,-11746.4767682,-0.415388375521,1774572946.92,0.054105207324,1774572947.13
-0.556315004826,-428.606109619,191.118408203,-0.214218303561,,,4.63210391998,3305.73524308,-11746.4776017,-0.445058971643,1774572950.93,0.0471238903701,1774572951.13
-0.556315004826,-428.681243896,192.115509033,-0.214218303561,,,4.58148908615,3305.73531381,-11746.4787805,-0.459021598101,1774572954.93,0.0506145469844,1774572955.13
-0.556315004826,-428.631164551,192.946411133,-0.214218303561,,,4.53436517715,3305.73533306,-11746.4797321,-0.460766911507,1774572958.93,0.045378562063,1774572959.14
-0.556315004826,-428.581085205,194.085952759,-0.173690497875,,,4.49771356583,3305.73531884,-11746.4810707,-0.460766911507,1774572962.97,0.0471238903701,1774572963.14
-0.556315004826,-428.556030273,194.869384766,-0.141847193241,,,4.45233488083,3305.73527328,-11746.482003,-0.459021598101,1774572966.97,0.0471238903701,1774572967.14
-0.556315004826,-428.581085205,195.818984985,-0.118688501418,,,4.40870189667,3305.73517762,-11746.4831174,-0.460766911507,1774572970.97,0.045378562063,1774572971.14
-0.556315004826,-428.556030273,196.697387695,-0.0984246209264,,,4.38601255417,3305.73506822,-11746.4841574,-0.457276254892,1774572974.98,0.0436332300305,1774572975.14
-0.556315004826,-428.556030273,197.623260498,-0.0607916787267,,,4.347615242,3305.7349182,-11746.4852431,-0.457276254892,1774572978.98,0.0418879017234,1774572979.15
-0.556315004826,-428.530975342,198.501647949,-0.0260535702109,,,4.31968975067,3305.73475082,-11746.4862735,-0.457276254892,1774572982.98,0.0383972451091,1774572983.15
-0.556315004826,-428.606109619,199.427520752,-0.0144742103294,,,4.31096315384,3305.73456592,-11746.4873606,-0.453785598278,1774572986.98,0.0383972451091,1774572987.15
-0.556315004826,-428.656219482,200.424606323,0.0260535702109,,,4.30398178101,3305.7343587,-11746.4885367,-0.453785598278,1774572990.99,0.0383972451091,1774572991.15
-0.556315004826,-428.530975342,201.20803833,0.0376329384744,,,4.31794452667,3305.73420373,-11746.4894818,-0.455530941486,1774572994.99,0.0383972451091,1774572995.16
-0.556315004826,-428.556030273,202.252609253,0.0376329384744,,,4.34237909317,3305.73402782,-11746.4907144,-0.457276254892,1774572998.99,0.0436332300305,1774572999.16
-0.557766795158,-428.681243896,203.012313843,0.0376329384744,,,4.3720498085,3305.73392317,-11746.4916078,-0.455530941486,1774573003,0.045378562063,1774573003.16
-0.556315004826,-428.656219482,204.15184021,0.0376329384744,,,4.3755402565,3305.73376612,-11746.4929836,-0.450294941664,1774573007,0.0436332300305,1774573007.16
-0.556315004826,-428.681243896,204.840316772,0.0376329384744,,,4.38252162933,3305.73367715,-11746.4938061,-0.448549628258,1774573011,0.0401425734162,1774573011.17
-0.557766795158,-428.556030273,205.908630371,0.0376329384744,,,4.35983228683,3305.73351016,-11746.4951143,-0.446804285049,1774573015.01,0.0383972451091,1774573015.17
-0.556315004826,-428.581085205,206.620834351,0.0376329384744,,,4.33365249634,3305.73338399,-11746.4959538,-0.446804285049,1774573019.01,0.0383972451091,1774573019.17
-0.556315004826,-428.631164551,207.712890625,0.0376329384744,,,4.32143545151,3305.7331798,-11746.4972227,-0.448549628258,1774573023.01,0.0383972451091,1774573023.17
-0.556315004826,-428.606109619,208.709976196,0.0607916787267,,,4.33016204834,3305.73299729,-11746.4984131,-0.448549628258,1774573027.01,0.0418879017234,1774573027.17
-0.556315004826,-428.556030273,209.469665527,0.0810555815697,,,4.34412431717,3305.73286581,-11746.4993442,-0.446804285049,1774573031.02,0.0401425734162,1774573031.18
-0.557766795158,-428.581085205,210.466766357,0.0810555815697,,,4.349360466,3305.73269929,-11746.5005626,-0.445058971643,1774573035.02,0.0401425734162,1774573035.18
-0.556315004826,-428.556030273,211.27394104,0.0810555815697,,,4.35110569,3305.73256845,-11746.5015305,-0.448549628258,1774573039.03,0.0383972451091,1774573039.18
-0.556315004826,-428.681243896,212.365982056,0.0810555815697,,,4.35808706284,3305.73240217,-11746.502818,-0.457276254892,1774573043.03,0.0401425734162,1774573043.18
-0.557766795158,-428.556030273,213.078201294,0.0810555815697,,,4.38950300217,3305.73231628,-11746.5036584,-0.453785598278,1774573047.07,0.0383972451091,1774573047.19
-0.556315004826,-428.631164551,214.170257568,0.0810555815697,,,4.396484375,3305.73218964,-11746.5049741,-0.452040284872,1774573051.07,0.0436332300305,1774573051.19
-0.556315004826,-428.606109619,214.953689575,0.0810555815697,,,4.41568279266,3305.73211416,-11746.5059187,-0.450294941664,1774573055.08,0.0383972451091,1774573055.19
-0.556315004826,-428.656219482,215.998260498,0.0810555815697,,,4.43139076233,3305.73203092,-11746.5071687,-0.453785598278,1774573059.08,0.0418879017234,1774573059.19
-0.556315004826,-428.581085205,216.781692505,0.0810555815697,,,4.46280670166,3305.73199304,-11746.5081148,-0.450294941664,1774573063.08,0.0418879017234,1774573063.2
-0.556315004826,-428.581085205,217.778778076,0.0810555815697,,,4.50644016266,3305.73198908,-11746.5093238,-0.448549628258,1774573067.09,0.0418879017234,1774573067.2
-0.556315004826,-428.581085205,218.63343811,0.0810555815697,,,4.55530929565,3305.73202844,-11746.510363,-0.448549628258,1774573071.09,0.0401425734162,1774573071.2
-0.556315004826,-428.631164551,219.559310913,0.0810555815697,,,4.58498001099,3305.73209889,-11746.5114822,-0.448549628258,1774573075.09,0.045378562063,1774573075.2
-0.556315004826,-428.73135376,220.508911133,0.0810555815697,,,4.60068798065,3305.73218362,-11746.5125933,-0.450294941664,1774573079.1,0.0401425734162,1774573079.2
-0.556315004826,-428.656219482,221.363571167,-0.0463174693286,,,4.60068798065,3305.73226185,-11746.5136192,-0.450294941664,1774573083.1,0.045378562063,1774573083.21
-0.556315004826,-428.606109619,222.360656738,-0.0578968413174,,,4.61639595032,3305.73237482,-11746.5148799,-0.445058971643,1774573087.1,0.0471238903701,1774573087.21
-0.556315004826,-428.681243896,223.144088745,-0.0578968413174,,,4.64083051682,3305.73247926,-11746.5158253,-0.445058971643,1774573091.1,0.0471238903701,1774573091.21
-0.556315004826,-428.581085205,224.283630371,-0.0578968413174,,,4.66177463531,3305.73265118,-11746.5171638,-0.446804285049,1774573095.11,0.0436332300305,1774573095.21
-0.556315004826,-428.656219482,224.972091675,-0.0955297872424,,,4.68795442581,3305.73282865,-11746.5183383,-0.446804285049,1774573099.11,0.0471238903701,1774573103.22
-0.556315004826,-428.581085205,226.325286865,-0.124478198588,,,4.69668102264,3305.7330046,-11746.5194471,-0.452040284872,1774573104.86,0.0471238903701,1774573107.22
-0.557766795158,-428.606109619,227.274902344,-0.144742101431,,,4.68446350098,3305.73317078,-11746.5205694,-0.453785598278,1774573108.87,0.0471238903701,1774573111.22
-0.556315004826,-428.631164551,228.010848999,-0.165005907416,,,4.65130233765,3305.73327859,-11746.521472,-0.453785598278,1774573112.87,0.0506145469844,1774573115.23
-0.556315004826,-428.656219482,229.055435181,-0.165005907416,,,4.60243320465,3305.73337722,-11746.5227407,-0.452040284872,1774573116.87,0.0436332300305,1774573119.23
-0.557766795158,-428.606109619,229.696411133,-0.165005907416,,,4.53436517715,3305.73339258,-11746.5235001,-0.457276254892,1774573120.87,0.0471238903701,1774573123.23
-0.556315004826,-428.681243896,230.835952759,-0.165005907416,,,4.45058965683,3305.73332669,-11746.5248088,-0.459021598101,1774573124.88,0.0488692186773,1774573127.23
-0.556315004826,-428.631164551,231.548156738,-0.115793600678,,,4.37903118134,3305.73323438,-11746.5256392,-0.457276254892,1774573128.93,0.0436332300305,1774573131.23
-0.556315004826,-428.73135376,232.640213013,-0.0607916787267,,,4.31619930267,3305.73302085,-11746.5269294,-0.455530941486,1774573132.93,0.0418879017234,1774573135.24
-0.556315004826,-428.706298828,233.399902344,-0.00578968413174,,,4.27954721451,3305.73284429,-11746.527822,-0.452040284872,1774573136.93,0.0366519130766,1774573139.24
-0.556315004826,-428.606109619,234.373260498,0.0347381010652,,,4.24638605118,3305.73258819,-11746.5289478,-0.453785598278,1774573140.94,0.0418879017234,1774573143.24
-0.556315004826,-428.631164551,235.251647949,0.0781607404351,,,4.23765945435,3305.73234755,-11746.5299702,-0.452040284872,1774573144.94,0.0383972451091,1774573147.24
-0.556315004826,-428.656219482,236.201263428,0.110004000366,,,4.24114990234,3305.73209076,-11746.531076,-0.450294941664,1774573148.94,0.0349065847695,1774573151.25
-0.556315004826,-428.631164551,237.032165527,0.138952404261,,,4.24464082718,3305.731864,-11746.5320659,-0.450294941664,1774573152.95,0.0401425734162,1774573155.25
-0.557766795158,-428.73135376,237.981781006,0.138952404261,,,4.24987649918,3305.7316192,-11746.5331571,-0.448549628258,1774573156.95,0.0401425734162,1774573159.25
-0.556315004826,-428.656219482,238.812698364,0.167900800705,,,4.26558446884,3305.73140646,-11746.5341691,-0.448549628258,1774573160.96,0.0383972451091,1774573163.25
-0.556315004826,-428.706298828,239.762313843,0.167900800705,,,4.30747270584,3305.73120891,-11746.53531,-0.443313628435,1774573164.96,0.0401425734162,1774573167.26
-0.556315004826,-428.656219482,240.498260498,0.167900800705,,,4.34412431717,3305.73108404,-11746.5361943,-0.446804285049,1774573168.96,0.0401425734162,1774573171.26
-0.556315004826,-428.706298828,241.519088745,0.167900800705,,,4.38252162933,3305.73094998,-11746.5374336,-0.445058971643,1774573172.96,0.0418879017234,1774573175.26
-0.556315004826,-428.706298828,242.326263428,0.167900800705,,,4.42440986633,3305.73088164,-11746.538376,-0.450294941664,1774573176.97,0.0366519130766,1774573179.26
-0.557766795158,-428.756408691,243.299621582,0.127372995019,,,4.47502422333,3305.73084684,-11746.5395464,-0.452040284872,1774573180.97,0.0436332300305,1774573183.27
-0.556315004826,-428.656219482,244.059310913,0.0868452563882,,,4.52563858032,3305.73085856,-11746.5404571,-0.453785598278,1774573184.97,0.0418879017234,1774573187.27
-0.556315004826,-428.631164551,245.08013916,0.07526589185,,,4.58148908615,3305.73093213,-11746.5416835,-0.452040284872,1774573188.98,0.0401425734162,1774573191.27
-0.557766795158,-428.656219482,245.79234314,0.0376329384744,,,4.61988639832,3305.73101027,-11746.5425276,-0.455530941486,1774573192.98,0.0401425734162,1774573195.27
-0.557766795158,-428.631164551,246.765701294,0.00868452619761,,,4.65479326248,3305.73115269,-11746.5436907,-0.450294941664,1774573196.99,0.045378562063,1774573199.27
-0.556315004826,-428.606109619,247.477905273,-0.0405277907848,,,4.68271827698,3305.73127801,-11746.5445459,-0.450294941664,1774573200.99,0.0488692186773,1774573203.28
-0.556315004826,-428.606109619,248.546218872,-0.0607916787267,,,4.69842624664,3305.73147889,-11746.5457998,-0.452040284872,1774573204.99,0.0471238903701,1774573207.28
-0.557766795158,-428.681243896,249.305908203,-0.0897400975227,,,4.70715284348,3305.73162995,-11746.5466998,-0.450294941664,1774573208.99,0.0471238903701,1774573211.28
-0.556315004826,-428.656219482,250.08934021,-0.110004000366,,,4.72460651398,3305.73180362,-11746.547648,-0.448549628258,1774573213.04,0.0436332300305,1774573215.28
-0.556315004826,-428.681243896,251.038955688,-0.110004000366,,,4.71762514114,3305.73199964,-11746.5487553,-0.446804285049,1774573217.04,0.045378562063,1774573219.29
-0.556315004826,-428.631164551,252.059783936,-0.147636905313,,,4.70191717148,3305.7322026,-11746.5499986,-0.453785598278,1774573221.04,0.045378562063,1774573223.29
-0.556315004826,-428.631164551,252.819473267,-0.147636905313,,,4.68271827698,3305.73233424,-11746.5508968,-0.453785598278,1774573225.04,0.0471238903701,1774573227.29
-0.556315004826,-428.681243896,253.674133301,-0.147636905313,,,4.65130233765,3305.73245744,-11746.5519283,-0.445058971643,1774573229.05,0.0471238903701,1774573231.29
-0.557766795158,-428.681243896,254.576263428,-0.147636905313,,,4.60417842865,3305.73254551,-11746.5530402,-0.441568315029,1774573233.05,0.045378562063,1774573235.29
-0.557766795158,-428.581085205,255.359695435,-0.147636905313,,,4.53960132599,3305.732569,-11746.5539938,-0.445058971643,1774573237.05,0.0471238903701,1774573239.3
-0.556315004826,-428.656219482,256.356781006,-0.147636905313,,,4.47851467133,3305.73253733,-11746.5551755,-0.446804285049,1774573241.06,0.0436332300305,1774573243.3
-0.556315004826,-428.681243896,257.09274292,-0.101319402456,,,4.40695619583,3305.73246083,-11746.5560516,-0.452040284872,1774573245.06,0.045378562063,1774573247.3
-0.556315004826,-428.706298828,258.113555908,-0.0636865198612,,,4.36157798767,3305.73230786,-11746.5572641,-0.455530941486,1774573249.06,0.0401425734162,1774573251.3
-0.556315004826,-428.806488037,258.849517822,-0.0173690505326,,,4.33365249634,3305.7321781,-11746.5581275,-0.453785598278,1774573253.07,0.0383972451091,1774573255.31
-0.557766795158,-428.631164551,259.91784668,0.0231587290764,,,4.31619930267,3305.73196626,-11746.5594075,-0.448549628258,1774573257.07,0.0366519130766,1774573259.31
-0.557766795158,-428.606109619,260.677520752,0.0636865198612,,,4.31096315384,3305.7318129,-11746.5603091,-0.446804285049,1774573261.08,0.0401425734162,1774573263.31
-0.557766795158,-428.756408691,261.555908203,0.0781607404351,,,4.29874610901,3305.73161818,-11746.5613861,-0.450294941664,1774573265.08,0.0418879017234,1774573267.31
-0.556315004826,-428.681243896,262.363098145,0.0781607404351,,,4.30049133301,3305.73145182,-11746.562314,-0.446804285049,1774573269.08,0.0418879017234,1774573271.32
-0.556315004826,-428.631164551,263.45513916,0.107109099627,,,4.32492589951,3305.73123448,-11746.5636905,-0.441568315029,1774573273.08,0.0366519130766,1774573275.32
-0.556315004826,-428.706298828,264.21484375,0.107109099627,,,4.35808706284,3305.73111667,-11746.5646027,-0.439822971821,1774573277.09,0.0401425734162,1774573279.32
-0.556315004826,-428.781433105,264.998260498,0.107109099627,,,4.40695619583,3305.73103166,-11746.565576,-0.441568315029,1774573281.09,0.0418879017234,1774573283.32
-0.557766795158,-428.656219482,265.876647949,0.107109099627,,,4.45058965683,3305.73097707,-11746.56666,-0.439822971821,1774573285.1,0.0418879017234,1774573287.33
-0.556315004826,-428.73135376,266.778778076,0.107109099627,,,4.49073219299,3305.73095923,-11746.5677406,-0.441568315029,1774573289.1,0.0418879017234,1774573291.33
-0.556315004826,-428.681243896,267.657165527,0.0636865198612,,,4.54134654999,3305.73098717,-11746.5688109,-0.445058971643,1774573293.11,0.0401425734162,1774573295.33
-0.556315004826,-428.706298828,268.393127441,0.0376329384744,,,4.58498001099,3305.73104303,-11746.5696984,-0.446804285049,1774573297.14,0.0471238903701,1774573299.33
-0.557766795158,-428.706298828,269.413970947,-0.00289484206587,,,4.62337732315,3305.73116165,-11746.5709399,-0.446804285049,1774573301.14,0.045378562063,1774573303.33
-0.557766795158,-428.656219482,270.102416992,-0.0376329384744,,,4.63908529282,3305.73125327,-11746.5717808,-0.441568315029,1774573305.15,0.0436332300305,1774573307.34
-0.556315004826,-428.831542969,271.147003174,-0.0636865198612,,,4.64083051682,3305.73139521,-11746.5730658,-0.439822971821,1774573309.15,0.045378562063,1774573311.34
-0.557766795158,-428.631164551,271.811737061,-0.0868452563882,,,4.64257574081,3305.73148927,-11746.573906,-0.439822971821,1774573313.15,0.0471238903701,1774573315.34
-0.557766795158,-428.656219482,272.951263428,-0.0868452563882,,,4.65479326248,3305.73165584,-11746.5752664,-0.438077628613,1774573317.15,0.0488692186773,1774573319.34
-0.556315004826,-428.756408691,273.568511963,-0.107109099627,,,4.65828371048,3305.73175372,-11746.5760467,-0.438077628613,1774573321.16,0.0471238903701,1774573323.35
-0.556315004826,-428.681243896,274.446899414,-0.107109099627,,,4.68097305298,3305.73190477,-11746.5770882,-0.436332315207,1774573325.16,0.0418879017234,1774573327.35
-0.556315004826,-428.706298828,275.349029541,-0.136057496071,,,4.69493579865,3305.7320812,-11746.5782108,-0.446804285049,1774573329.17,0.045378562063,1774573331.35
-0.556315004826,-428.606109619,276.203674316,-0.13316270709,,,4.68271827698,3305.73222417,-11746.5791864,-0.453785598278,1774573333.17,0.054105207324,1774573335.35
-0.556315004826,-428.656219482,277.105804443,-0.176585301757,,,4.64955711365,3305.73235724,-11746.5803147,-0.446804285049,1774573337.17,0.0488692186773,1774573339.36
-0.557766795158,-428.781433105,277.794281006,-0.176585301757,,,4.61115980148,3305.73242797,-11746.5811455,-0.445058971643,1774573341.18,0.045378562063,1774573343.36
-0.556315004826,-428.706298828,278.76763916,-0.176585301757,,,4.56752681732,3305.73248578,-11746.5823453,-0.443313628435,1774573345.18,0.0436332300305,1774573347.36
-0.557766795158,-428.681243896,279.551055908,-0.176585301757,,,4.52389335632,3305.73250097,-11746.5836776,-0.443313628435,1774573349.18,0.0436332300305,1774573351.36
-0.556315004826,-428.706298828,280.738098145,-0.141847193241,,,4.44884443283,3305.73244747,-11746.5847098,-0.441568315029,1774573354.93,0.045378562063,1774573355.36
-0.556315004826,-428.656219482,281.782653809,-0.141847193241,,,4.394739151,3305.73232637,-11746.5859486,-0.441568315029,1774573358.94,0.0436332300305,1774573359.37
-0.556315004826,-428.781433105,282.518615723,-0.0607916787267,,,4.34412431717,3305.732201,-11746.5868364,-0.445058971643,1774573362.94,0.045378562063,1774573363.37
-0.557766795158,-428.706298828,283.610656738,-0.0289484206587,,,4.30747270584,3305.73197212,-11746.5881583,-0.446804285049,1774573366.95,0.045378562063,1774573367.37
-0.556315004826,-428.706298828,284.322875977,0.00868452619761,,,4.29525518417,3305.73181593,-11746.5890077,-0.445058971643,1774573370.95,0.0418879017234,1774573371.37
-0.556315004826,-428.706298828,285.225006104,0.0434226281941,,,4.30747270584,3305.73162838,-11746.5900908,-0.443313628435,1774573374.95,0.0401425734162,1774573375.38
-0.556315004826,-428.656219482,286.055908203,0.0781607404351,,,4.33190727234,3305.73147302,-11746.5911142,-0.446804285049,1774573378.99,0.0418879017234,1774573379.38
-0.557766795158,-428.73135376,286.88684082,0.0781607404351,,,4.3737950325,3305.73135675,-11746.5921194,-0.446804285049,1774573383,0.0383972451091,1774573383.38
-0.556315004826,-428.631164551,287.765228271,0.0781607404351,,,4.4226641655,3305.73127573,-11746.5932143,-0.441568315029,1774573387,0.0418879017234,1774573387.38
-0.556315004826,-428.631164551,288.572387695,0.0781607404351,,,4.46106147766,3305.7312365,-11746.5941592,-0.443313628435,1774573391.01,0.0418879017234,1774573391.38
-0.556315004826,-428.73135376,289.522003174,0.0405277907848,,,4.49073219299,3305.73121707,-11746.5953356,-0.441568315029,1774573395.01,0.0436332300305,1774573395.39
-0.556315004826,-428.73135376,290.210479736,0.00868452619761,,,4.50469493866,3305.731213,-11746.5961914,-0.443313628435,1774573399.01,0.045378562063,1774573399.39
-0.556315004826,-428.73135376,290.993896484,0.00868452619761,,,4.52214813232,3305.73122271,-11746.5971693,-0.441568315029,1774573403.02,0.045378562063,1774573403.39
-0.556315004826,-428.681243896,291.990997314,0.00868452619761,,,4.54658269882,3305.73126007,-11746.5983939,-0.443313628435,1774573407.02,0.0418879017234,1774573407.39
-0.557766795158,-428.706298828,292.679473877,0.00868452619761,,,4.56578111649,3305.73129941,-11746.5992361,-0.443313628435,1774573411.02,0.0436332300305,1774573411.4
-0.556315004826,-428.806488037,293.747772217,0.00868452619761,,,4.59196138382,3305.73138917,-11746.6005399,-0.445058971643,1774573415.03,0.045378562063,1774573415.4
-0.557766795158,-428.681243896,294.483734131,0.00868452619761,,,4.61639595032,3305.73146736,-11746.6014126,-0.441568315029,1774573419.03,0.0418879017234,1774573419.4
-0.556315004826,-428.831542969,295.409606934,-0.0839504301548,,,4.63733959198,3305.73158974,-11746.6025514,-0.438077628613,1774573423.04,0.045378562063,1774573423.4
-0.557766795158,-428.756408691,296.193023682,-0.110004000366,,,4.65130233765,3305.731705,-11746.6035165,-0.438077628613,1774573427.04,0.0471238903701,1774573427.41
-0.557766795158,-428.756408691,297.118896484,-0.130267798901,,,4.65828371048,3305.73184707,-11746.6046491,-0.439822971821,1774573431.04,0.045378562063,1774573431.41
-0.556315004826,-428.781433105,297.926086426,-0.150531694293,,,4.65479326248,3305.73197172,-11746.6056672,-0.441568315029,1774573435.05,0.0436332300305,1774573435.41
